name,latitude,longitude,authority,source,source
Bankhead Dam,33.458665,-87.356823,"Southern Company Services, Inc. - Trans",Black Warrior River,Black Warrior River
Barry,31.006900,-88.010300,"Southern Company Services, Inc. - Trans",Mobile River,Mobile River
Walter Bouldin Dam,32.583889,-86.283056,"Southern Company Services, Inc. - Trans",Coosa River,Coosa River
Gadsden,34.012800,-85.970800,"Southern Company Services, Inc. - Trans",Coosa River,Coosa River
Gorgas,33.644344,-87.196486,"Southern Company Services, Inc. - Trans",Warrior River,Warrior River
Copper,31.756900,-106.375000,El Paso Electric Company,Municipality,Municipality
Greene County,32.601700,-87.781100,"Southern Company Services, Inc. - Trans",Black Warrior River,Black Warrior River
H Neely Henry Dam,33.784500,-86.052400,"Southern Company Services, Inc. - Trans",Coosa River,Coosa River
Holt Dam,33.255300,-87.449500,"Southern Company Services, Inc. - Trans",Black Warrior River,Black Warrior River
Jordan Dam,32.618900,-86.254800,"Southern Company Services, Inc. - Trans",Coosa River,Coosa River
Logan Martin Dam,33.425878,-86.337547,"Southern Company Services, Inc. - Trans",Coosa River,Coosa River
Lay Dam,32.963300,-86.518700,"Southern Company Services, Inc. - Trans",Coosa River,Coosa River
Martin Dam,32.680394,-85.911442,"Southern Company Services, Inc. - Trans",Tallapoosa River,Tallapoosa River
Mitchell Dam,32.806025,-86.444892,"Southern Company Services, Inc. - Trans",Coosa River,Coosa River
Lewis Smith Dam,33.940600,-87.107700,"Southern Company Services, Inc. - Trans",Sipsey Fork Black Warrior Rive,Sipsey Fork Black Warrior Rive
Thurlow Dam,32.535436,-85.887614,"Southern Company Services, Inc. - Trans",Tallapoosa River,Tallapoosa River
Weiss Dam,34.172142,-85.753806,"Southern Company Services, Inc. - Trans",Coosa River,Coosa River
Yates Dam,32.574300,-85.890100,"Southern Company Services, Inc. - Trans",Tallapoosa River,Tallapoosa River
E C Gaston,33.244211,-86.458056,"Southern Company Services, Inc. - Trans",Coosa River,Coosa River
Madelia,44.050100,-94.417800,"Midcontinent Independent Transmission System Operator, Inc..",,
Rollins,39.134259,-120.953341,California Independent System Operator,Bear River,Bear River
Millers Ferry,32.100881,-87.399767,"Southern Company Services, Inc. - Trans",Alabama River,Alabama River
Browns Ferry,34.704200,-87.118900,Tennessee Valley Authority,Tennessee River,Tennessee River
Colbert,34.743900,-87.848600,Tennessee Valley Authority,Tennessee River,Tennessee River
Guntersville,34.421272,-86.393931,Tennessee Valley Authority,Tennessee River,Tennessee River
Wheeler Dam,34.806900,-87.381900,Tennessee Valley Authority,Tennessee River,Tennessee River
Widows Creek,34.883022,-85.755253,Tennessee Valley Authority,Tennessee River,Tennessee River
Dolet Hills,32.030556,-93.569167,"Midcontinent Independent Transmission System Operator, Inc..",Toledo Bend Lake,Toledo Bend Lake
Gantt,31.403300,-86.479469,PowerSouth Energy Cooperative,Conecuh River,Conecuh River
J K Smith,37.883300,-84.101700,"PJM Interconnection, LLC",Kentucky River,Kentucky River
Point A,31.361146,-86.518307,PowerSouth Energy Cooperative,Conecuh River,Conecuh River
Charles R Lowman,31.488019,-87.910747,PowerSouth Energy Cooperative,Tombigbee River,Tombigbee River
Platte,40.854765,-98.348222,Southwest Power Pool,Wells,Wells
Whelan Energy Center,40.580872,-98.312437,Southwest Power Pool,Wells,Wells
Annex Creek,58.317600,-134.101000,,Annex Creek Lake,Annex Creek Lake
Gold Creek,58.310700,-134.417400,,Gold Creek,Gold Creek
Lemon Creek,58.353600,-134.495300,,,
Salmon Creek 1,58.326900,-134.463100,,Salmon Creek Reservoir,Salmon Creek Reservoir
Skagway,59.454500,-135.313100,,Dewey Lake,Dewey Lake
Haines,59.235931,-135.446228,,,
Swan Lake,55.615208,-131.356111,No BA,Swan Lake,Swan Lake
Terror Lake Microgrid,57.686100,-152.895000,,Terror Lake,Terror Lake
Venice Hydro,34.011350,-118.416800,California Independent System Operator,River,River
Anchorage 1,61.222100,-149.866100,,,
Eklutna Hydro Project,61.475211,-149.150090,,Eklutna Lake,Eklutna Lake
Snettisham,58.141500,-133.737000,,Long Lake And Crater Lake,Long Lake And Crater Lake
Aurora Energy LLC Chena,64.847743,-147.735063,,Chena River,Chena River
Ketchikan,55.344641,-131.633425,,Ketchikan Lakes,Ketchikan Lakes
S W Bailey,55.357397,-131.696960,,Municipality,Municipality
Escalante,35.415900,-108.082000,Western Area Power Administration - Rocky Mountain Region,Wells,Wells
Ashokan,41.949000,-74.206300,New York Independent System Operator,Ashokan Reservoir,Ashokan Reservoir
Snake River,64.505331,-165.429814,,Municipality,Municipality
Petersburg,56.811040,-132.957091,,Crystal Lake,Crystal Lake
Seward (AK),60.130922,-149.435010,,Municipality,Municipality
Blue Lake Hydro,57.051600,-135.229700,,Blue Lake,Blue Lake
Wrangell,56.460976,-132.379439,,,
Beluga,61.186100,-151.035600,,Well,Well
Frederickson,47.079722,-122.365000,Puget Sound Energy,City of Tacoma,City of Tacoma
South Consolidated,33.466477,-111.781064,Salt River Project,South Consolidated Canal,South Consolidated Canal
J S Eastwood,37.147926,-119.256700,California Independent System Operator,San Joaquin River,San Joaquin River
Holcomb,37.930800,-100.972500,Southwest Power Pool,Wells,Wells
Dillingham,59.042914,-158.468597,,,
Childs,34.351111,-111.700556,,Fossil Creek/Natural Spring,Fossil Creek/Natural Spring
Cholla,34.939400,-110.303300,Arizona Public Service Company,Lake Wells,Lake Wells
Douglas,31.364122,-109.553800,Arizona Public Service Company,Municipality,Municipality
Irving,34.402222,-111.617222,,Fossil Creek/Natural Spring,Fossil Creek/Natural Spring
Ocotillo,33.422500,-111.912200,Arizona Public Service Company,Wells,Wells
West Phoenix,33.441700,-112.158300,Arizona Public Service Company,Wells,Wells
Saguaro,32.551700,-111.300000,Arizona Public Service Company,Wells,Wells
Yucca,32.721400,-114.710600,Arizona Public Service Company,Wells,Wells
Demoss Petrie,32.252273,-110.992148,Tucson Electric Power Company,Wells,Wells
H Wilson Sundt Generating Station,32.160000,-110.904700,Tucson Electric Power Company,Wells,Wells
Oklaunion,34.082500,-99.175300,Southwest Power Pool,Municipality,Municipality
Cross,33.371506,-80.113235,South Carolina Public Service Authority,Diversion Canal,Diversion Canal
Seminole (FL),29.733056,-81.632778,Seminole Electric Cooperative,St Johns River,St Johns River
Agua Fria,33.556100,-112.215300,Salt River Project,Wells,Wells
Crosscut,33.439375,-111.946052,Salt River Project,Crosscut Canal,Crosscut Canal
Horse Mesa,33.590700,-111.344000,Salt River Project,Salt River,Salt River
Kyrene,33.355600,-111.935300,Salt River Project,Well Water,Well Water
Mormon Flat,33.553600,-111.443100,Salt River Project,Salt River,Salt River
Roosevelt,33.671104,-111.161786,Salt River Project,Salt River,Salt River
Stewart Mountain,33.566100,-111.536000,Salt River Project,Salt River,Salt River
McClure,37.629360,-120.931390,Balancing Authority of Northern California,Municipality,Municipality
Davis Dam,35.197044,-114.570669,Western Area Power Administration - Desert Southwest Region,Colorado River,Colorado River
Glen Canyon Dam,36.936614,-111.483872,Western Area Power Administration - Desert Southwest Region,Lake Powell - Colorado River,Lake Powell - Colorado River
Hoover Dam (NV),36.015510,-114.738006,Western Area Power Administration - Desert Southwest Region,Lake Mead  - Colorado River,Lake Mead  - Colorado River
Lake Creek Dam,40.493631,-111.312506,PacifiCorp - East,Lake Creek,Lake Creek
Apache Station,32.060300,-109.893100,Western Area Power Administration - Desert Southwest Region,Wells,Wells
Turlock Lake,37.611461,-120.594678,Turlock Irrigation District,Turlock Lake,Turlock Lake
Hickman,37.621536,-120.746247,Turlock Irrigation District,Main Canal,Main Canal
Big Pine,24.579167,-81.685000,,,
GREC,36.190278,-95.289400,Southwest Power Pool,Grand Neosho,Grand Neosho
Carpenter,34.442500,-93.026200,"Midcontinent Independent Transmission System Operator, Inc..",Lake Hamilton,Lake Hamilton
Cecil Lynch,34.753500,-92.198700,"Midcontinent Independent Transmission System Operator, Inc..",Arkansas River,Arkansas River
Hamilton Moses,34.980600,-90.872200,"Midcontinent Independent Transmission System Operator, Inc..",L'Anquille River,L'Anquille River
Harvey Couch,33.359200,-93.464900,"Midcontinent Independent Transmission System Operator, Inc..",Wells,Wells
Lake Catherine,34.434100,-92.904900,"Midcontinent Independent Transmission System Operator, Inc..",Lake Catherine,Lake Catherine
Mabelvale,34.635997,-92.409602,"Midcontinent Independent Transmission System Operator, Inc..",Air Cooled Condensor,Air Cooled Condensor
Osceola (AR),35.689300,-89.994000,"Midcontinent Independent Transmission System Operator, Inc..",NA,NA
Robert E Ritchie,34.462900,-90.598700,"Midcontinent Independent Transmission System Operator, Inc..",Mississippi River,Mississippi River
Remmel,34.427200,-92.894100,"Midcontinent Independent Transmission System Operator, Inc..",Lake Catherine,Lake Catherine
Volta 2,40.451930,-121.862150,California Independent System Operator,Cross Country Canal,Cross Country Canal
Beaver Dam,36.421507,-93.847373,Southwestern Power Administration,Beaver Lake,Beaver Lake
Degray,34.211913,-93.110963,"Midcontinent Independent Transmission System Operator, Inc..",Caddo River,Caddo River
Greers Ferry Lake,35.520700,-91.995300,Southwestern Power Administration,Greers Ferry Lake,Greers Ferry Lake
Paragould,36.060556,-90.521389,Southwestern Power Administration,Wells,Wells
Municipal Light,36.385800,-90.186700,Southwestern Power Administration,Municipality,Municipality
Narrows (AR),34.148427,-93.715168,Southwest Power Pool,Little Missouri River,Little Missouri River
Norfork,36.249100,-92.240100,Southwestern Power Administration,Norfork Lake,Norfork Lake
Blakely Mountain,34.570984,-93.194425,"Midcontinent Independent Transmission System Operator, Inc..",Ouachita River,Ouachita River
Bull Shoals,36.363500,-92.576300,Southwestern Power Administration,Bull Shoals Lake,Bull Shoals Lake
Dardanelle,35.250300,-93.168600,Southwestern Power Administration,Arkansas River,Arkansas River
Thomas Fitzhugh,35.462382,-93.804926,Southwest Power Pool,Arkansas River,Arkansas River
Carl Bailey,35.260102,-91.363426,"Midcontinent Independent Transmission System Operator, Inc..",White River,White River
McClellan (AR),33.564800,-92.791700,"Midcontinent Independent Transmission System Operator, Inc..",Ouachita River,Ouachita River
Clinton Power Station,40.171900,-88.833900,"Midcontinent Independent Transmission System Operator, Inc..",Salt Creek,Salt Creek
St Johns River Power Park,30.430800,-81.550800,JEA,St. Johns River,St. Johns River
Wolf Creek Generating Station,38.239260,-95.689780,Southwest Power Pool,Wolf Creek Cooling Lake,Wolf Creek Cooling Lake
Alta Powerhouse,39.215979,-120.803550,California Independent System Operator,Towle Canal,Towle Canal
Angels,38.071944,-120.539444,California Independent System Operator,North Fork Stanislaus River,North Fork Stanislaus River
Balch 1,36.909137,-119.087712,California Independent System Operator,North Fork Kings River,North Fork Kings River
Balch 2,36.908907,-119.087556,California Independent System Operator,North Fork Kings River,North Fork Kings River
Belden,40.007445,-121.249438,California Independent System Operator,North Fork Feather River,North Fork Feather River
Bucks Creek,39.910620,-121.327692,California Independent System Operator,Bucks Creek,Bucks Creek
Butt Valley,40.175656,-121.190663,California Independent System Operator,North Fork Feather River,North Fork Feather River
Caribou 1,40.085476,-121.148241,California Independent System Operator,North Fork Feather River,North Fork Feather River
Caribou 2,40.085997,-121.149373,California Independent System Operator,North Fork Feather River,North Fork Feather River
Centerville PH,39.788877,-121.657383,California Independent System Operator,Big Butte Creek,Big Butte Creek
Chili Bar,38.771764,-120.813239,California Independent System Operator,South Fork American River,South Fork American River
Coal Canyon,39.605043,-121.600525,California Independent System Operator,West Branch Feather River,West Branch Feather River
Coleman PH,40.404645,-122.121904,California Independent System Operator,Battle Creek,Battle Creek
Cow Creek,40.570817,-122.020930,California Independent System Operator,South Cow Creek,South Cow Creek
Cresta,39.825907,-121.409687,California Independent System Operator,North Fork Feather River,North Fork Feather River
De Sabla,39.869265,-121.631819,California Independent System Operator,Big Butte Creek,Big Butte Creek
Deer Creek PH,39.298070,-120.844300,California Independent System Operator,Deer Creek,Deer Creek
Drum 1,39.256873,-120.767437,California Independent System Operator,Bear River,Bear River
Drum 2,39.257388,-120.767046,California Independent System Operator,Bear River,Bear River
Dutch Flat,39.216985,-120.835587,California Independent System Operator,Bear River,Bear River
El Dorado,38.793574,-120.619152,California Independent System Operator,South Fork American River,South Fork American River
Electra,38.330985,-120.669901,California Independent System Operator,North Fork Mokelumne River,North Fork Mokelumne River
Haas,36.927424,-119.020250,California Independent System Operator,North Fork Kings River,North Fork Kings River
Halsey,38.956985,-121.041932,California Independent System Operator,Bear River,Bear River
Hamilton Branch,40.268712,-121.089479,California Independent System Operator,Hamilton Branch Of Nf Feather,Hamilton Branch Of Nf Feather
Hat Creek 1,40.929297,-121.544462,California Independent System Operator,Hat Creek,Hat Creek
Hat Creek 2,40.960675,-121.548657,California Independent System Operator,Hat Creek,Hat Creek
Humboldt Bay,40.741500,-124.210300,California Independent System Operator,Humboldt Bay,Humboldt Bay
Hunters Point,37.733611,-122.389722,,San Francisco Bay,San Francisco Bay
Inskip,40.400988,-121.965502,California Independent System Operator,South & North Forks Battle Cre,South & North Forks Battle Cre
James B Black,40.992295,-121.975182,California Independent System Operator,McCloud River & Iron Canyon Cr,McCloud River & Iron Canyon Cr
Kerckhoff,37.092486,-119.552826,California Independent System Operator,San Joaquin River,San Joaquin River
Kilarc,40.677827,-121.873253,California Independent System Operator,North Fork Cow Creek,North Fork Cow Creek
Kings River PH,36.888166,-119.158777,California Independent System Operator,North Fork Kings River,North Fork Kings River
Lime Saddle,39.698755,-121.570960,California Independent System Operator,Kunkle Creek & Wb Feather Rive,Kunkle Creek & Wb Feather Rive
Merced Falls,37.523010,-120.329905,California Independent System Operator,Merced River,Merced River
Dynegy Moss Landing Power Plant,36.804837,-121.782241,California Independent System Operator,Moss Landing Harbor,Moss Landing Harbor
Murphys,38.147093,-120.446396,California Independent System Operator,Mill Creek & Nf Stanislaus Riv,Mill Creek & Nf Stanislaus Riv
Narrows PH,39.236400,-121.271741,California Independent System Operator,Yuba River,Yuba River
Phoenix,38.032103,-120.326537,California Independent System Operator,South Fork Stanislaus River,South Fork Stanislaus River
Pit 1,40.990840,-121.498243,California Independent System Operator,Fall River,Fall River
Pit 3,40.997448,-121.748139,California Independent System Operator,Pit River,Pit River
Pit 4,40.986361,-121.849440,California Independent System Operator,Pit River,Pit River
Pit 5,40.986197,-121.977594,California Independent System Operator,Pit River,Pit River
Pit 6,40.922568,-121.992906,California Independent System Operator,Pit River,Pit River
Pit 7,40.847462,-121.990798,California Independent System Operator,Pit River,Pit River
Poe,39.722892,-121.469814,California Independent System Operator,North Fork Feather River,North Fork Feather River
Potter Valley,39.361786,-123.127934,California Independent System Operator,Eel River,Eel River
Rock Creek,39.905210,-121.345226,California Independent System Operator,North Fork Feather River,North Fork Feather River
San Joaquin 2,37.203233,-119.497508,California Independent System Operator,North & South Forks Willow Cre,North & South Forks Willow Cre
San Joaquin 3,37.253718,-119.519352,California Independent System Operator,North & South Forks Willow Cre,North & South Forks Willow Cre
Salt Springs,38.497914,-120.218110,California Independent System Operator,Mokelumne River,Mokelumne River
South,40.395396,-121.879186,California Independent System Operator,South Fork Battle Creek,South Fork Battle Creek
Spaulding 1,39.324613,-120.644807,California Independent System Operator,Lake Spaulding,Lake Spaulding
Spaulding 2,39.324592,-120.645375,California Independent System Operator,Lake Spaulding,Lake Spaulding
Spaulding 3,39.337679,-120.635467,California Independent System Operator,Lake Fuller,Lake Fuller
Spring Gap,38.186530,-120.111680,California Independent System Operator,Main Strawberry Reservoir,Main Strawberry Reservoir
Stanislaus,38.139048,-120.370325,California Independent System Operator,Middle Fork Stanislaus River,Middle Fork Stanislaus River
Geysers Unit 5-20,38.777000,-122.745000,California Independent System Operator,Wells,Wells
Tiger Creek,38.449291,-120.492645,California Independent System Operator,North Fork Mokelumne River,North Fork Mokelumne River
Tule River,36.163076,-118.707104,California Independent System Operator,Tule River,Tule River
Volta 1,40.459111,-121.867080,California Independent System Operator,"N Battle, Bailey & Millseat Cr","N Battle, Bailey & Millseat Cr"
West Point PH,38.420898,-120.549572,California Independent System Operator,North Fork Mokelumne River,North Fork Mokelumne River
Wise,38.889862,-121.098525,California Independent System Operator,Tailwater From Halsey Plant,Tailwater From Halsey Plant
A G Wishon,37.151050,-119.504724,California Independent System Operator,North & South Forks Willow Cre,North & South Forks Willow Cre
Copco 1,41.978914,-122.335317,PacifiCorp - West,Klamath River,Klamath River
Copco 2,41.975716,-122.358127,PacifiCorp - West,Klamath River,Klamath River
Fall Creek,41.985605,-122.360455,PacifiCorp - West,Fall Creek,Fall Creek
Iron Gate,41.932981,-122.436780,PacifiCorp - West,Klamath River,Klamath River
Limestone,31.421900,-96.252500,"Electric Reliability Council of Texas, Inc.",Lake Limestone,Lake Limestone
Blundell,38.488900,-112.853300,PacifiCorp - East,Wells,Wells
Division,32.681667,-117.120277,,Municipality,Municipality
El Cajon,32.795800,-116.972200,California Independent System Operator,Municipality,Municipality
Encina,33.136100,-117.336400,California Independent System Operator,Pacific Ocean,Pacific Ocean
Kearny,32.834000,-117.133800,California Independent System Operator,Municipality,Municipality
Miramar,32.876100,-117.166400,California Independent System Operator,Municipality,Municipality
Naval Station,32.681667,-117.120277,,Municipality,Municipality
North Island,32.705000,-117.190277,,Municipality,Municipality
Silver Gate,32.697222,-117.114722,California Independent System Operator,San Diego Bay,San Diego Bay
Refuse & Coal,39.902222,-83.024444,,Quarry Pond,Quarry Pond
Green Lake,56.986284,-135.122750,,Green Lake,Green Lake
Drop 5,32.673097,-115.392026,Imperial Irrigation District,Canal Filtered,Canal Filtered
AES Alamitos LLC,33.768800,-118.100900,California Independent System Operator,Los Cerritos Channel,Los Cerritos Channel
Sepulveda Canyon,34.096900,-118.479500,Los Angeles Department of Water and Power,River,River
Big Creek 1,37.204200,-119.239600,California Independent System Operator,San Joaquin River,San Joaquin River
Big Creek 2,37.200000,-119.306900,California Independent System Operator,San Joaquin River,San Joaquin River
Big Creek 3,37.148517,-119.386623,California Independent System Operator,San Joaquin River,San Joaquin River
Big Creek 4,37.139000,-119.489800,California Independent System Operator,San Joaquin River,San Joaquin River
Big Creek 8,37.209600,-119.328900,California Independent System Operator,San Joaquin River,San Joaquin River
Big Creek 2A,37.200062,-119.306810,California Independent System Operator,San Joaquin River,San Joaquin River
Bishop Creek 2,37.273581,-118.573339,California Independent System Operator,Bishop Creek,Bishop Creek
Bishop Creek 3,37.301962,-118.531957,California Independent System Operator,Bishop Creek,Bishop Creek
Bishop Creek 4,37.323035,-118.501714,California Independent System Operator,Bishop Creek,Bishop Creek
Bishop Creek 5,37.334400,-118.479700,California Independent System Operator,Bishop Creek,Bishop Creek
Bishop Creek 6,37.349900,-118.462800,California Independent System Operator,Bishop Creek,Bishop Creek
Borel,35.588069,-118.524804,California Independent System Operator,Kern River,Kern River
Coolwater,34.860600,-116.853900,California Independent System Operator,Wells,Wells
El Segundo Power,33.909804,-118.424172,California Independent System Operator,Pacific Ocean,Pacific Ocean
Etiwanda Generating Station,34.091180,-117.526630,California Independent System Operator,Wells,Wells
Fontana,34.155162,-117.397119,California Independent System Operator,Lytle Creek,Lytle Creek
AES Huntington Beach LLC,33.643900,-117.979200,California Independent System Operator,Pacific Ocean,Pacific Ocean
Kaweah 2,36.461326,-118.879880,California Independent System Operator,Mid & Marble Forks Kaweah Rive,Mid & Marble Forks Kaweah Rive
Kaweah 1,36.465066,-118.862023,California Independent System Operator,East Fork Kaweah River,East Fork Kaweah River
Kaweah 3,36.486059,-118.835645,California Independent System Operator,Mid & Marble Forks Kaweah Rive,Mid & Marble Forks Kaweah Rive
Kern River 3,35.776185,-118.436233,California Independent System Operator,Kern River,Kern River
Kern River 1,35.460303,-118.779590,California Independent System Operator,Kern River,Kern River
Long Beach Generation LLC,33.764100,-118.224800,California Independent System Operator,Air Cooled Condensor,Air Cooled Condensor
Lundy,38.042729,-119.172015,California Independent System Operator,Mill Creek,Mill Creek
Mammoth Pool,37.220302,-119.337983,California Independent System Operator,San Joaquin River,San Joaquin River
Mandalay,34.206700,-119.251100,California Independent System Operator,Pacific Ocean,Pacific Ocean
Ormond Beach,34.129200,-119.168900,California Independent System Operator,Pacific Ocean,Pacific Ocean
Poole,37.944237,-119.216100,California Independent System Operator,Lee Vining Creek,Lee Vining Creek
Portal,37.257045,-119.158936,California Independent System Operator,Portal Forebay,Portal Forebay
AES Redondo Beach LLC,33.850400,-118.395000,California Independent System Operator,Pacific Ocean,Pacific Ocean
Rush Creek,37.766954,-119.123284,California Independent System Operator,Rush Creek,Rush Creek
Mountainview Generating Station,34.081800,-117.241800,California Independent System Operator,Wells,Wells
San Onofre Nuclear Generating Station,33.368794,-117.554916,California Independent System Operator,Pacific Ocean,Pacific Ocean
Santa Ana 1,34.145220,-117.058481,California Independent System Operator,Santa Ana River,Santa Ana River
Santa Ana 3,34.107245,-117.099091,California Independent System Operator,Santa Ana River,Santa Ana River
Lower Tule River,36.135680,-118.788868,California Independent System Operator,Tule River,Tule River
Columbia Generating Station,46.471100,-119.333900,Bonneville Power Administration,Columbia River,Columbia River
Magnolia,34.178056,-118.315556,,Municipality,Municipality
Pardee,38.256900,-120.850700,California Independent System Operator,Pardee Reservoir,Pardee Reservoir
Grayson,34.155600,-118.278200,Los Angeles Department of Water and Power,Municipality,Municipality
Prairie River,47.287206,-93.498266,"Midcontinent Independent Transmission System Operator, Inc..",Prairie River,Prairie River
Dion R Holm,37.896649,-119.967500,California Independent System Operator,Cherry Reservoir,Cherry Reservoir
Moccasin,37.809388,-120.299254,California Independent System Operator,Priest Reservoir,Priest Reservoir
R C Kirkwood,37.877667,-119.953233,California Independent System Operator,Hetch Hetchy Reservoir,Hetch Hetchy Reservoir
Brawley,32.968889,-115.534444,Imperial Irrigation District,Municipality,Municipality
Joliet 29,41.494636,-88.123827,"PJM Interconnection, LLC",Desplaines River,Desplaines River
Drop 2 (CA),32.705435,-115.030975,Imperial Irrigation District,Canal Filtered,Canal Filtered
Drop 3 (CA),32.705428,-115.126103,Imperial Irrigation District,Well & Canal Filtered,Well & Canal Filtered
Drop 4,32.705341,-115.219067,Imperial Irrigation District,Well & Canal Filtered,Well & Canal Filtered
Pilot Knob,32.736642,-114.713858,Imperial Irrigation District,Canal Filtered,Canal Filtered
El Centro,32.802222,-115.540000,Imperial Irrigation District,Dogwood Canal,Dogwood Canal
Solomon Gulch,61.082800,-146.303300,,Solomon Lake,Solomon Lake
Big Pine Creek,37.142795,-118.324075,Los Angeles Department of Water and Power,Big Pine Creek,Big Pine Creek
Castaic,34.587237,-118.656638,Los Angeles Department of Water and Power,Pyramid Lake California Aquedu,Pyramid Lake California Aquedu
Control Gorge,37.437921,-118.556988,Los Angeles Department of Water and Power,Middle Gorge Tailbay,Middle Gorge Tailbay
Cottonwood,36.443421,-118.043890,Los Angeles Department of Water and Power,Cottonwood Creek,Cottonwood Creek
Foothill,34.318248,-118.494449,Los Angeles Department of Water and Power,Los Angeles Aqueduct,Los Angeles Aqueduct
Franklin (CA),34.103931,-118.413377,Los Angeles Department of Water and Power,Municipality,Municipality
Haiwee,36.109722,-117.956667,Los Angeles Department of Water and Power,Los Angeles Aqueduct,Los Angeles Aqueduct
Harbor,33.770600,-118.265600,Los Angeles Department of Water and Power,Pacific Ocean,Pacific Ocean
Haynes,33.764741,-118.099130,Los Angeles Department of Water and Power,Pacific Ocean,Pacific Ocean
Middle Gorge,37.510000,-118.569167,Los Angeles Department of Water and Power,Upper Gorge Tailbay,Upper Gorge Tailbay
Pleasant Valley Hydro,37.414160,-118.523889,Los Angeles Department of Water and Power,Pleasant Valley Reservoir,Pleasant Valley Reservoir
San Fernando,34.312778,-118.492778,Los Angeles Department of Water and Power,Los Angeles Aqueduct,Los Angeles Aqueduct
Scattergood,33.918151,-118.427648,Los Angeles Department of Water and Power,Pacific Ocean,Pacific Ocean
Tok,63.335520,-142.999970,,Well,Well
Upper Gorge,37.546036,-118.590001,Los Angeles Department of Water and Power,Lake Crowley,Lake Crowley
Valley (CA),34.244991,-118.391327,Los Angeles Department of Water and Power,Municipality,Municipality
Exchequer,37.584345,-120.268590,California Independent System Operator,Lake Mcclure-Merced River,Lake Mcclure-Merced River
McSwain,37.522065,-120.310090,California Independent System Operator,Lake Mcswain-Merced River,Lake Mcswain-Merced River
Chicago Park,39.177903,-120.890856,California Independent System Operator,Bear River,Bear River
Dutch Flat 2,39.218400,-120.835200,California Independent System Operator,Bear River,Bear River
Beardsley,38.202569,-120.076983,California Independent System Operator,Stanislaus River,Stanislaus River
Donnells,38.246656,-120.034072,California Independent System Operator,Stanislaus River,Stanislaus River
Tulloch,37.876111,-120.605000,California Independent System Operator,Stanislaus River,Stanislaus River
Forbestown,39.551012,-121.278784,California Independent System Operator,South Fork Feather River,South Fork Feather River
Kelly Ridge,39.531784,-121.491247,California Independent System Operator,South Fork Feather River,South Fork Feather River
Woodleaf,39.553811,-121.204077,California Independent System Operator,South Fork Feather River,South Fork Feather River
Broadway (CA),34.125400,-118.148000,California Independent System Operator,Municipality,Municipality
Craig (AK),55.476910,-133.148690,,Municipality,Municipality
Glenarm,34.126000,-118.149400,California Independent System Operator,Municipality,Municipality
Hydaburg,55.204937,-132.821435,,,
French Meadows,39.077971,-120.406069,California Independent System Operator,Middle Fork American River,Middle Fork American River
Middle Fork,39.024801,-120.596383,California Independent System Operator,Rubicon River,Rubicon River
Oxbow (CA),39.003372,-120.746651,California Independent System Operator,Middle Fork American River,Middle Fork American River
Ralston,39.000999,-120.725053,California Independent System Operator,Rubicon River,Rubicon River
Parker,37.477838,-120.444492,California Independent System Operator,Main Canal,Main Canal
Camino,38.828810,-120.537089,Balancing Authority of Northern California,Silver Creek,Silver Creek
Jaybird,38.834050,-120.531760,Balancing Authority of Northern California,Silver Creek,Silver Creek
Loon Lake,38.982697,-120.324503,Balancing Authority of Northern California,Gerle Creek,Gerle Creek
Robbs Peak,38.896511,-120.378292,Balancing Authority of Northern California,South Fork Rubicon,South Fork Rubicon
White Rock/Slab Creek,38.765336,-120.787366,Balancing Authority of Northern California,South Fork American River,South Fork American River
Devil Canyon,34.205600,-117.334400,California Independent System Operator,Water From Penstocks Ca Aquedu,Water From Penstocks Ca Aquedu
Edward C Hyatt,39.542985,-121.492188,California Independent System Operator,Water From Penstocks Oroville,Water From Penstocks Oroville
Thermalito,39.514893,-121.630077,California Independent System Operator,Wtr Fr Penstocks Thermal Foreb,Wtr Fr Penstocks Thermal Foreb
Don Pedro,37.695994,-120.420152,Turlock Irrigation District,Tuolumne River,Tuolumne River
La Grange,37.669700,-120.443600,Turlock Irrigation District,Tuolumne River,Tuolumne River
Folsom,38.706750,-121.158443,Western Area Power Administration - Desert Southwest Region,American River,American River
Judge F Carr,40.646934,-122.626973,Western Area Power Administration - Desert Southwest Region,Trinity River,Trinity River
Keswick,40.611858,-122.446441,Western Area Power Administration - Desert Southwest Region,Sacramento River,Sacramento River
Nimbus,38.637350,-121.220198,Western Area Power Administration - Desert Southwest Region,American River,American River
Shasta,40.717455,-122.422274,Western Area Power Administration - Desert Southwest Region,Sacramento River,Sacramento River
ONeill,37.098671,-121.047718,Western Area Power Administration - Desert Southwest Region,O'Neill Forebay - San Luis Cre,O'Neill Forebay - San Luis Cre
Parker Dam,34.295334,-114.140222,Western Area Power Administration - Desert Southwest Region,Colorado River,Colorado River
W R Gianelli,37.069200,-121.077200,California Independent System Operator,Wtr Fr Penstocks San Luis Res,Wtr Fr Penstocks San Luis Res
Spring Creek,40.628115,-122.467509,Western Area Power Administration - Desert Southwest Region,Whiskey Town Reservoir-Clear C,Whiskey Town Reservoir-Clear C
Trinity,40.797296,-122.762553,Western Area Power Administration - Desert Southwest Region,Trinity River,Trinity River
Colgate,39.330833,-121.191666,California Independent System Operator,North Yuba River,North Yuba River
Narrows 2,39.238996,-121.270409,California Independent System Operator,Yuba River,Yuba River
Bear Valley,33.166246,-117.016566,California Independent System Operator,Lake Wohlford,Lake Wohlford
Pueblo,38.266700,-104.614400,Public Service Company of Colorado,Arkansas River,Arkansas River
W N Clark,38.434400,-105.250000,Public Service Company of Colorado,Arkansas River,Arkansas River
Alamosa,37.459400,-105.894700,Public Service Company of Colorado,,
Arapahoe,39.670000,-105.002800,Public Service Company of Colorado,South Platte River,South Platte River
Boulder Canyon Hydro,40.004725,-105.332495,Public Service Company of Colorado,Middle Boulder Creek,Middle Boulder Creek
Cabin Creek,39.655100,-105.708800,Public Service Company of Colorado,South Clear Creek,South Clear Creek
Cameo,39.127778,-108.326111,Public Service Company of Colorado,Colorado River,Colorado River
Cherokee,39.807275,-104.964548,Public Service Company of Colorado,South Platte River,South Platte River
Comanche (CO),38.208100,-104.574700,Western Area Power Administration - Rocky Mountain Region,Arkansas River,Arkansas River
Fruita,39.136400,-108.734700,Public Service Company of Colorado,,
Georgetown Hydro,39.691900,-105.697800,Public Service Company of Colorado,South Clear Creek,South Clear Creek
Grand Valley Project Power Plant,39.101667,-108.345556,Public Service Company of Colorado,Colorado River,Colorado River
Salida,38.534190,-106.182003,Public Service Company of Colorado,South Arkansas River,South Arkansas River
Shoshone (CO),39.570130,-107.226876,Public Service Company of Colorado,Colorado River,Colorado River
Valmont,40.019500,-105.202000,Public Service Company of Colorado,South Boulder Creek,South Boulder Creek
Zuni,39.737348,-105.016991,Public Service Company of Colorado,South Platte River,South Platte River
Temescal,33.834300,-117.497100,California Independent System Operator,River,River
Corona,33.858950,-117.610600,California Independent System Operator,River,River
Perris,33.836100,-117.183100,California Independent System Operator,River,River
Rio Hondo,34.004722,-118.099170,California Independent System Operator,River,River
Coyote Creek,33.924930,-117.955170,California Independent System Operator,River,River
Red Mountain,33.394400,-117.188900,California Independent System Operator,River,River
Valley View,33.900100,-117.829050,California Independent System Operator,River,River
Upper Dawson,37.650800,-120.470600,Turlock Irrigation District,Upper Turlock Main Canal,Upper Turlock Main Canal
Center,37.753606,-106.104670,Public Service Company of Colorado,Municipality-Wells,Municipality-Wells
Martin Drake,38.824444,-104.833333,Western Area Power Administration - Rocky Mountain Region,Municipality,Municipality
George Birdsall,38.881389,-104.816944,Western Area Power Administration - Rocky Mountain Region,Municipality,Municipality
Manitou Springs,38.855556,-104.933056,Western Area Power Administration - Rocky Mountain Region,Municipality,Municipality
Ruxton Park,38.841354,-104.973802,Western Area Power Administration - Rocky Mountain Region,Municipality,Municipality
Holly,38.032717,-102.073659,Western Area Power Administration - Rocky Mountain Region,Municipality,Municipality
Julesburg,40.950500,-102.279500,Western Area Power Administration - Rocky Mountain Region,Well,Well
Boysen,43.417872,-108.177545,Western Area Power Administration UGP West,Wind River,Wind River
La Junta,37.987600,-103.546800,Public Service Company of Colorado,Municipality,Municipality
Las Animas,38.064700,-103.215900,Western Area Power Administration - Rocky Mountain Region,Wells,Wells
Lamar Plant,38.033327,-102.537915,Public Service Company of Colorado,Wells,Wells
Sonoma California Geothermal,38.790300,-122.755900,California Independent System Operator,Wells,Wells
Trinidad (CO),37.178979,-104.487492,Western Area Power Administration - Rocky Mountain Region,Municipality,Municipality
Blue Mesa,38.453191,-107.337483,Western Area Power Administration - Rocky Mountain Region,Blue Mesa Reservoir-Gunnison R,Blue Mesa Reservoir-Gunnison R
Estes,40.376771,-105.509665,Western Area Power Administration - Rocky Mountain Region,Colorado River,Colorado River
Morrow Point,38.451753,-107.539299,Western Area Power Administration - Rocky Mountain Region,Morrow Point Reservoir-Gunniso,Morrow Point Reservoir-Gunniso
Big Thompson,40.421031,-105.223804,Western Area Power Administration - Rocky Mountain Region,Colorado River,Colorado River
Green Mountain,39.878805,-106.332725,Western Area Power Administration - Rocky Mountain Region,Blue River,Blue River
Marys Lake,40.344080,-105.534308,Western Area Power Administration - Rocky Mountain Region,Colorado River,Colorado River
Flatiron,40.364996,-105.236032,Western Area Power Administration - Rocky Mountain Region,Colorado River,Colorado River
Pole Hill,40.365056,-105.325074,Western Area Power Administration - Rocky Mountain Region,Colorado River,Colorado River
Lower Molina,39.193660,-108.044088,Western Area Power Administration - Rocky Mountain Region,Bonham Reservoir,Bonham Reservoir
Upper Molina,39.143808,-108.004777,Western Area Power Administration - Rocky Mountain Region,Bonham Reservoir,Bonham Reservoir
Hayden,40.485600,-107.185000,Public Service Company of Colorado,Yampa River,Yampa River
Nucla,38.238300,-108.506900,Western Area Power Administration - Rocky Mountain Region,San Miguel River,San Miguel River
Rancho Seco Solar,38.340015,-121.113861,Balancing Authority of Northern California,,
Camp Far West,39.048802,-121.316966,California Independent System Operator,Bear River,Bear River
McWilliams,31.400255,-86.476449,PowerSouth Energy Cooperative,Conecuh River,Conecuh River
Jones Fork,38.850283,-120.381883,Balancing Authority of Northern California,South Fork Silver Creek,South Fork Silver Creek
McClellan (CA),38.652731,-121.393336,Balancing Authority of Northern California,,
Camanche,38.226800,-121.024500,California Independent System Operator,Comanche Reservoir,Comanche Reservoir
Rocky River (CT),41.582600,-73.434900,ISO New England Inc.,Housatonic River,Housatonic River
Branford,41.292500,-72.794200,ISO New England Inc.,,
Bulls Bridge,41.659046,-73.491984,ISO New England Inc.,Housatonic River,Housatonic River
Cos Cob,41.028900,-73.598900,ISO New England Inc.,,
Devon Station,41.209797,-73.108976,ISO New England Inc.,Housatonic River,Housatonic River
Montville Station,41.428100,-72.101900,ISO New England Inc.,Thames River,Thames River
Northfield Mountain,42.610683,-72.471643,ISO New England Inc.,Connecticut River,Connecticut River
Kettle Falls Generating Station,48.620336,-118.111059,Avista Corporation,Wells,Wells
Scotland Dam,41.665100,-72.122100,ISO New England Inc.,Shetucket,Shetucket
Shepaug,41.448420,-73.295321,ISO New England Inc.,Housatonic River,Housatonic River
Stevenson,41.383300,-73.171400,ISO New England Inc.,Housatonic River,Housatonic River
Taftville,41.572500,-72.045800,ISO New England Inc.,Shetucket,Shetucket
Tunnel,41.555425,-72.041829,ISO New England Inc.,Quinebaug,Quinebaug
Rainbow (CT),41.915312,-72.693616,ISO New England Inc.,Farmington River,Farmington River
Falls Village,41.957272,-73.369297,ISO New England Inc.,Housatonic River,Housatonic River
Franklin Drive,41.798943,-73.116267,ISO New England Inc.,,
Middletown,41.554944,-72.579075,ISO New England Inc.,Connecticut River,Connecticut River
South Meadow,41.749500,-72.652400,ISO New England Inc.,Connecticut River,Connecticut River
Stanton Energy Center,28.482200,-81.167800,Florida Municipal Power Pool,Eastern Water Reclaimation Fac,Eastern Water Reclaimation Fac
Torrington Terminal,41.776109,-73.120886,ISO New England Inc.,,
Millstone,41.310700,-72.167700,ISO New England Inc.,Long Island Sound,Long Island Sound
Bridgeport Station,41.170600,-73.184400,ISO New England Inc.,Bridgeport Harbor,Bridgeport Harbor
Central Hudson High Falls,41.828814,-74.131877,New York Independent System Operator,Rondout Creek,Rondout Creek
North Main Street,41.526790,-72.064935,ISO New England Inc.,,
Tenth Street,41.538955,-72.050936,ISO New England Inc.,Shetucket River,Shetucket River
Navajo Dam,36.806100,-107.613100,Western Area Power Administration - Rocky Mountain Region,San Juan River,San Juan River
Drop 1,32.711611,-114.942666,Imperial Irrigation District,Well & Canal Filtered,Well & Canal Filtered
East Highline,32.699451,-115.282450,Imperial Irrigation District,Canal Filtered,Canal Filtered
J C McNeil,44.491700,-73.208056,ISO New England Inc.,Wells,Wells
Christiana,39.730200,-75.537100,"PJM Interconnection, LLC",,
Delaware City 10,39.600408,-75.626811,"PJM Interconnection, LLC",,
Edge Moor,39.738860,-75.503840,"PJM Interconnection, LLC",Delaware River,Delaware River
Indian River Generating Station,38.585700,-75.234100,"PJM Interconnection, LLC",Indian River,Indian River
West Station (DE),39.728300,-75.628900,"PJM Interconnection, LLC",,
McKee Run,39.176222,-75.546628,"PJM Interconnection, LLC",Municipality,Municipality
Brandon Shores,39.180000,-76.538900,"PJM Interconnection, LLC",Patapsco River,Patapsco River
Fredonia,48.455800,-122.435800,Puget Sound Energy,Skagit PUD,Skagit PUD
Cape Canaveral,28.469800,-80.764400,Florida Power & Light Company,Indian River,Indian River
Cutler,25.632100,-80.298900,Florida Power & Light Company,Biscayne Bay,Biscayne Bay
Fort Myers,26.696700,-81.783100,Florida Power & Light Company,Caloosahatchee River,Caloosahatchee River
Lauderdale,26.068600,-80.198400,Florida Power & Light Company,Dania Cut-Off Canal,Dania Cut-Off Canal
Port Everglades,26.085600,-80.125300,Florida Power & Light Company,Intracoastal Waterway,Intracoastal Waterway
Riviera,26.765300,-80.052500,Florida Power & Light Company,Lake Worth,Lake Worth
Sanford,28.841900,-81.325600,Florida Power & Light Company,St. Johns River,St. Johns River
Turkey Point,25.435600,-80.330800,Florida Power & Light Company,Biscayne Bay,Biscayne Bay
South Fork Tolt,47.699167,-121.783333,Seattle City Light,South Fork Tolt River,South Fork Tolt River
Avon Park,27.579444,-81.492778,Progress Energy Florida,Lake Lotilla,Lake Lotilla
Upper Mechanicville,42.912600,-73.680500,New York Independent System Operator,Hudson River,Hudson River
Oak Flat,40.075310,-121.161430,California Independent System Operator,North Fork Feather River,North Fork Feather River
Bayboro,27.758056,-82.635278,Progress Energy Florida,,
Crystal River,28.965600,-82.697700,Progress Energy Florida,Gulf of Mexico,Gulf of Mexico
G E Turner,28.869577,-81.273957,Progress Energy Florida,Lake Monroe,Lake Monroe
Higgins,28.003262,-82.661507,Progress Energy Florida,Tampa Bay,Tampa Bay
Newcastle,38.835182,-121.092982,California Independent System Operator,South Canal,South Canal
P L Bartow,27.859535,-82.601759,Progress Energy Florida,Tampa Bay,Tampa Bay
Rio Pinar,28.541515,-81.254067,Progress Energy Florida,,
Suwannee River,30.376389,-83.180556,Progress Energy Florida,Suwannee River,Suwannee River
Crist,30.566100,-87.224400,"Southern Company Services, Inc. - Trans",Escambia River,Escambia River
Scholz,30.669200,-84.886900,"Southern Company Services, Inc. - Trans",Apalachicola River,Apalachicola River
Lansing Smith,30.268600,-85.700300,"Southern Company Services, Inc. - Trans",North Bay,North Bay
Big Bend,27.794400,-82.403600,Tampa Electric Company,Tampa Bay,Tampa Bay
F J Gannon,27.907222,-82.423055,,Hillsborough Bay,Hillsborough Bay
Hookers Point,27.937500,-82.444444,,Hillsborough Bay,Hillsborough Bay
Vogtle,33.142700,-81.762500,"Southern Company Services, Inc. - Trans",Savannah River,Savannah River
Kensico,41.085100,-73.774800,New York Independent System Operator,Kensico Reservoir,Kensico Reservoir
Henry D King,27.448611,-80.338611,Florida Municipal Power Pool,Municipality,Municipality
Deerhaven Generating Station,29.759200,-82.387800,Gainesville Regional Utilities,Wells in Floridan Aquifer,Wells in Floridan Aquifer
John R Kelly,29.646100,-82.320800,Gainesville Regional Utilities,Wells,Wells
G W Ivey,25.475600,-80.470000,City of Homestead,Wells,Wells
J D Kennedy,30.364818,-81.625967,JEA,,
Northside Generating Station,30.417200,-81.552500,JEA,St. Johns River,St. Johns River
Southside Generating Station,30.316389,-81.648888,,St. Johns River,St. Johns River
Hansel,28.289436,-81.407908,Florida Municipal Power Pool,Municipality,Municipality
Tom G Smith,26.612767,-80.067700,Florida Municipal Power Pool,Municipality,Municipality
Pilot Butte,43.219017,-108.787681,Western Area Power Administration UGP West,Wyoming Canal - Wind River,Wyoming Canal - Wind River
Larsen Memorial,28.079700,-81.922800,Florida Municipal Power Pool,Lake Parker,Lake Parker
C D McIntosh Jr,28.080100,-81.922900,Florida Municipal Power Pool,Municipality,Municipality
W K Sanders,44.625282,-72.530859,ISO New England Inc.,Green River Reservoir,Green River Reservoir
Smith Street,29.021900,-80.964400,"New Smyrna Beach, Utilities Commission of",Municipality,Municipality
W E Swoope,29.021900,-80.964400,"New Smyrna Beach, Utilities Commission of",Municipality,Municipality
Kerckhoff 2,37.071846,-119.558008,California Independent System Operator,San Joaquin River,San Joaquin River
Indian River Plant,28.493232,-80.780124,Florida Municipal Power Pool,Indian River,Indian River
St Cloud,28.244700,-81.288100,Florida Municipal Power Pool,Municipality,Municipality
Arvah B Hopkins,30.452200,-84.400000,City of Tallahassee,Wells,Wells
S O Purdom,30.162304,-84.200673,City of Tallahassee,St. Marks River,St. Marks River
J Woodruff,30.708571,-84.863869,Florida Power & Light Company,Lake Seminole Reservoir,Lake Seminole Reservoir
Medicine Bow,41.835278,-106.242778,Western Area Power Administration UGP West,,
Marathon Generating Plant,24.710833,-81.092700,Florida Power & Light Company,Boot Key Harbor,Boot Key Harbor
Trenton North,40.078600,-93.635000,Southwest Power Pool,,
Arkwright,32.926944,-83.699444,,Ocmulgee River,Ocmulgee River
Atkinson,33.817500,-84.480278,,Chattahoochee River,Chattahoochee River
Barnett Shoals,33.839475,-83.309716,"Southern Company Services, Inc. - Trans",Oconee River,Oconee River
Bartletts Ferry,32.661976,-85.091552,"Southern Company Services, Inc. - Trans",Chattahoochee River,Chattahoochee River
Bowen,34.125600,-84.922200,"Southern Company Services, Inc. - Trans",Etowah River,Etowah River
Burton Dam,34.793900,-83.540600,"Southern Company Services, Inc. - Trans",Tallulah River,Tallulah River
Flint River,31.602800,-84.137600,"Southern Company Services, Inc. - Trans",Flint River,Flint River
Goat Rock,32.609650,-85.080500,"Southern Company Services, Inc. - Trans",Chattahoochee River,Chattahoochee River
Hammond,34.252800,-85.345600,"Southern Company Services, Inc. - Trans",Coosa River,Coosa River
Harllee Branch,33.195000,-83.298300,"Southern Company Services, Inc. - Trans",Lake Sinclair,Lake Sinclair
Jack McDonough,33.823900,-84.475800,"Southern Company Services, Inc. - Trans",Chattahoochee River,Chattahoochee River
Langdale,32.813836,-85.167786,"Southern Company Services, Inc. - Trans",Chattahoochee River,Chattahoochee River
Lloyd Shoals,33.320773,-83.841922,"Southern Company Services, Inc. - Trans",Ocmulgee River,Ocmulgee River
Toadtown,39.893491,-121.593380,California Independent System Operator,West Branch Feather River,West Branch Feather River
McManus,31.213645,-81.546165,"Southern Company Services, Inc. - Trans",Turtle River,Turtle River
Morgan Falls,33.968400,-84.382700,"Southern Company Services, Inc. - Trans",Chattahoochee River,Chattahoochee River
Nacoochee,34.755269,-83.501073,"Southern Company Services, Inc. - Trans",Tallulah River,Tallulah River
North Highlands,32.498791,-84.995585,"Southern Company Services, Inc. - Trans",Chattahoochee River,Chattahoochee River
Oliver Dam,32.516300,-84.996900,"Southern Company Services, Inc. - Trans",Chattahoochee River,Chattahoochee River
Sinclair Dam,33.140300,-83.202800,"Southern Company Services, Inc. - Trans",Oconee River,Oconee River
Tallulah Falls,34.731332,-83.375475,"Southern Company Services, Inc. - Trans",Tallulah River,Tallulah River
Terrora,34.750400,-83.406300,"Southern Company Services, Inc. - Trans",Tallulah River,Tallulah River
Tugalo,34.713300,-83.351900,"Southern Company Services, Inc. - Trans",Tugalo River,Tugalo River
Mitchell (GA),31.444728,-84.134696,"Southern Company Services, Inc. - Trans",Flint River,Flint River
Yates,33.462200,-84.898600,"Southern Company Services, Inc. - Trans",Chattahoochee River,Chattahoochee River
Yonah,34.681477,-83.342642,"Southern Company Services, Inc. - Trans",Tugalo River,Tugalo River
Boulevard,32.041100,-81.145000,"Southern Company Services, Inc. - Trans",,
Kraft,32.148600,-81.145800,"Southern Company Services, Inc. - Trans",Savannah River,Savannah River
Riverside (GA),32.083611,-81.095555,,Savannah River,Savannah River
Stevens Creek,33.562644,-82.051242,South Carolina Electric & Gas Company,Savannah River,Savannah River
Etiwanda,34.103450,-117.525700,California Independent System Operator,River,River
Dinner Lake,27.492500,-81.435833,,Municipality,Municipality
Phillips,27.443900,-81.363300,Tampa Electric Company,Wells,Wells
Moccasin Low Head Hydro Project,37.816447,-120.312033,California Independent System Operator,Moccasin Reservoir,Moccasin Reservoir
Lake Blackshear Project,31.847697,-83.941996,"Southern Company Services, Inc. - Trans",Lake Blackshear,Lake Blackshear
Crisp Plant,31.844708,-83.940734,"Southern Company Services, Inc. - Trans",Lake Blackshear,Lake Blackshear
Hartwell Lake,34.356400,-82.821900,Southeastern Power Administration,Savannah River,Savannah River
Blue Ridge,34.883889,-84.282222,Tennessee Valley Authority,Toccoa (Ocoee) River,Toccoa (Ocoee) River
Nottely,34.959153,-84.087650,Tennessee Valley Authority,Nottely River,Nottely River
Buford,34.162279,-84.077367,"Southern Company Services, Inc. - Trans",Chattahoochee River,Chattahoochee River
Allatoona,34.163700,-84.728200,"Southern Company Services, Inc. - Trans",Etowah River,Etowah River
Walter F George,31.624501,-85.065237,"Southern Company Services, Inc. - Trans",Chattahoochee River,Chattahoochee River
Ponca,36.719790,-97.085758,Southwest Power Pool,Municipality,Municipality
Honolulu,21.306800,-157.881900,,Pacific Ocean,Pacific Ocean
Kahe,21.356395,-158.128853,,Pacific Ocean,Pacific Ocean
Waiau,21.388997,-157.961518,,Pearl Harbor,Pearl Harbor
Waimea,20.025200,-155.695500,,,
Kanoelehua,19.705200,-155.062500,,,
Puueo,19.726400,-155.090800,,Wailuku River,Wailuku River
W H Hill,19.704100,-155.060700,,Wells,Wells
Sullivan CR,48.863333,-117.345277,,Harvey Creek And Sullivan Cree,Harvey Creek And Sullivan Cree
Waiau Hydro,19.720300,-155.118900,,Wailuku River,Wailuku River
Sly Creek,39.580413,-121.119479,California Independent System Operator,South Fork Feather River,South Fork Feather River
Basin Mills,44.875000,-68.673055,,Penobscot River,Penobscot River
Veazie C,44.836667,-68.698055,,Penobscot River,Penobscot River
Kingsley,41.211400,-101.668100,Southwest Power Pool,North Platte River,North Platte River
East Barnet,44.326335,-72.035894,ISO New England Inc.,Passumpsic River,Passumpsic River
Orca,60.555889,-145.752983,,,
Gem State,43.420221,-112.101852,PacifiCorp - East,Snake River,Snake River
Canyon,29.870560,-98.194733,"Electric Reliability Council of Texas, Inc.",Canyon Lake,Canyon Lake
Palaau Power,21.106000,-157.064700,,NA,NA
Lewisville,33.068473,-96.963806,"Electric Reliability Council of Texas, Inc.",Lewisville Lake,Lewisville Lake
Charles E Monty,44.099461,-70.220851,ISO New England Inc.,Androscoggin River,Androscoggin River
Jarvis (Hinckley),43.312100,-75.109000,New York Independent System Operator,Hinckley Reservoir,Hinckley Reservoir
American Falls,42.777800,-112.876400,Idaho Power Company,Snake River,Snake River
Bliss,42.913786,-115.070986,Idaho Power Company,Snake River,Snake River
Brownlee,44.836700,-116.897500,Idaho Power Company,Snake River,Snake River
C J Strike,42.944869,-115.977858,Idaho Power Company,Snake River,Snake River
Cascade Dam,44.525600,-116.048300,Idaho Power Company,N Fork Of The Payette River,N Fork Of The Payette River
Clear Lake,42.667010,-114.780120,Idaho Power Company,Clear Lake Outlet,Clear Lake Outlet
Lower Malad,42.865783,-114.906172,Idaho Power Company,Big Wood Malad River,Big Wood Malad River
Lower Salmon,42.841608,-114.903611,Idaho Power Company,Snake River,Snake River
Salmon Diesel,45.183368,-113.885307,Idaho Power Company,,
Shoshone Falls,42.597500,-114.403300,Idaho Power Company,Snake River,Snake River
Swan Falls,43.243500,-116.379100,Idaho Power Company,Snake River,Snake River
Thousand Springs,42.740542,-114.836722,Idaho Power Company,Thousand Springs,Thousand Springs
Twin Falls (ID),42.589200,-114.355300,Idaho Power Company,Snake River,Snake River
Upper Salmon A,42.767422,-114.924692,Idaho Power Company,Snake River,Snake River
Upper Malad,42.864267,-114.885542,Idaho Power Company,Big Wood Malad River,Big Wood Malad River
Ashton,44.078630,-111.497326,PacifiCorp - East,Henrys Fork Of The Snake River,Henrys Fork Of The Snake River
Cove,42.514444,-111.793055,PacifiCorp - East,Bear River,Bear River
Grace,42.536750,-111.793967,PacifiCorp - East,Bear River,Bear River
Oneida,42.267774,-111.748531,PacifiCorp - East,Bear River,Bear River
Soda,42.644550,-111.696689,PacifiCorp - East,Bear River,Bear River
Cabinet Gorge,48.084444,-116.053056,Avista Corporation,Clark Fork River,Clark Fork River
Post Falls,47.703333,-116.953889,Avista Corporation,Spokane River,Spokane River
Scott Flat,39.272108,-120.932508,California Independent System Operator,Deer Creek,Deer Creek
Dworshak,46.514300,-116.297700,Bonneville Power Administration,Clearwater River,Clearwater River
City Power Plant,43.491398,-112.045410,PacifiCorp - East,Snake River,Snake River
Lower No 2,43.468398,-112.062602,PacifiCorp - East,Snake River,Snake River
Upper Power Plant,43.552695,-112.050953,PacifiCorp - East,Snake River,Snake River
Combie South,39.009600,-121.059100,California Independent System Operator,Bear River,Bear River
Palisades Dam,43.334849,-111.205752,Bonneville Power Administration,Snake River,Snake River
Albeni Falls,48.180245,-116.998590,Bonneville Power Administration,Pend Orille Lake,Pend Orille Lake
E D Edwards,40.595800,-89.663100,"Midcontinent Independent Transmission System Operator, Inc..",Illinois River,Illinois River
Sterling Avenue,40.625278,-89.631111,"Midcontinent Independent Transmission System Operator, Inc..",Municipality,Municipality
Coffeen,39.058600,-89.403100,"Midcontinent Independent Transmission System Operator, Inc..",McDavid Branch,McDavid Branch
Grand Tower Energy Center LLC,37.657700,-89.511161,"Midcontinent Independent Transmission System Operator, Inc..",Mississippi River,Mississippi River
Bloom,42.057222,-87.869444,,,
Calumet,41.713611,-87.542778,,,
Crawford,41.828480,-87.722910,"PJM Interconnection, LLC",Chicago Sanitary and Ship,Chicago Sanitary and Ship
Dresden Generating Station,41.390000,-88.270000,"PJM Interconnection, LLC",Kankakee River,Kankakee River
Electric Junction,41.833300,-88.083300,,,
Joliet 9,41.493100,-88.115300,"PJM Interconnection, LLC",Desplaines River,Desplaines River
Kincaid Generation LLC,39.590556,-89.496389,"PJM Interconnection, LLC",Sangchris Lake,Sangchris Lake
Lombard,41.890000,-88.061667,,,
Powerton,40.540800,-89.678600,"PJM Interconnection, LLC",Illinois River,Illinois River
Quad Cities Generating Station,41.726111,-90.310278,"PJM Interconnection, LLC",Mississippi River,Mississippi River
Sabrooke,42.216944,-89.052222,,,
Waukegan,42.383300,-87.813300,"PJM Interconnection, LLC",Lake Michigan,Lake Michigan
Will County,41.633400,-88.062900,"PJM Interconnection, LLC",Chicago Sanitary and Ship,Chicago Sanitary and Ship
Fisk Street,41.850800,-87.653300,"PJM Interconnection, LLC",Chicago Sanitary and Ship,Chicago Sanitary and Ship
Joppa Steam,37.209400,-88.858889,"Electric Energy, Inc.",Ohio River,Ohio River
Baldwin Energy Complex,38.205000,-89.854400,"Midcontinent Independent Transmission System Operator, Inc..","Baldwin Lake, Kaskaskia River","Baldwin Lake, Kaskaskia River"
Havana,40.279700,-90.080000,"Midcontinent Independent Transmission System Operator, Inc..",Illinois River,Illinois River
Hennepin Power Station,41.302800,-89.315000,"Midcontinent Independent Transmission System Operator, Inc..",Illinois River,Illinois River
Oglesby,41.289700,-89.072500,"Midcontinent Independent Transmission System Operator, Inc..",Municipality,Municipality
Stallings,38.731400,-90.046100,"Midcontinent Independent Transmission System Operator, Inc..",Municipality,Municipality
Vermilion,40.178100,-87.748100,"Midcontinent Independent Transmission System Operator, Inc..",Vermilion Reservoir,Vermilion Reservoir
Wood River,38.863900,-90.134700,"Midcontinent Independent Transmission System Operator, Inc..",Mississippi River,Mississippi River
Moline,41.509959,-90.534021,"Midcontinent Independent Transmission System Operator, Inc..",Mississippi River,Mississippi River
Bottle Rock Power,38.834800,-122.767700,California Independent System Operator,By steam condensation,By steam condensation
Rockton,42.451100,-89.075600,"PJM Interconnection, LLC",Rock River,Rock River
Alamo,34.815800,-118.686700,California Independent System Operator,Water From Penstocks Ca Aquedu,Water From Penstocks Ca Aquedu
Venice,38.664200,-90.176400,"Midcontinent Independent Transmission System Operator, Inc..",Mississippi River,Mississippi River
Quincy Chute,46.982514,-119.257764,"Public Utility District No. 2 of Grant County, Washington",West Canal Of Columbia Basin,West Canal Of Columbia Basin
Hydro Plant No 3,39.205623,-111.334381,PacifiCorp - East,New Canyon Culinary Wtr Spr,New Canyon Culinary Wtr Spr
Breese,38.607456,-89.524514,"Midcontinent Independent Transmission System Operator, Inc..",Municipality,Municipality
Bushnell,40.548586,-90.513814,"Midcontinent Independent Transmission System Operator, Inc..",Municipality,Municipality
Carlyle,38.610600,-89.358300,"Midcontinent Independent Transmission System Operator, Inc..",Municipality,Municipality
Carmi,38.096700,-88.163100,"Midcontinent Independent Transmission System Operator, Inc..",Municipality,Municipality
Fairfield,38.380709,-88.366006,"Midcontinent Independent Transmission System Operator, Inc..",Municipality,Municipality
Farmer City,40.246110,-88.638761,"Midcontinent Independent Transmission System Operator, Inc..",Municipality,Municipality
Freeburg,38.425556,-89.914444,"Midcontinent Independent Transmission System Operator, Inc..",Municipal -Village of Freeburg,Municipal -Village of Freeburg
Geneseo,41.451494,-90.148547,"Midcontinent Independent Transmission System Operator, Inc..",Municipality,Municipality
Highland,38.741200,-89.684900,"Midcontinent Independent Transmission System Operator, Inc..",Municipality,Municipality
McLeansboro,38.094683,-88.541331,"Midcontinent Independent Transmission System Operator, Inc..",Municipal Water System,Municipal Water System
Marshall (IL),39.392138,-87.685130,"Midcontinent Independent Transmission System Operator, Inc..",Municipality,Municipality
Peru (IL),41.323700,-89.112300,"Midcontinent Independent Transmission System Operator, Inc..",Illinois River,Illinois River
C H Corn Hydroelectric Facility,30.388517,-84.646624,Progress Energy Florida,Lake Talquin,Lake Talquin
Princeton (IL),41.375528,-89.464872,"Midcontinent Independent Transmission System Operator, Inc..",Municipality,Municipality
Rantoul,40.312222,-88.159444,"Midcontinent Independent Transmission System Operator, Inc..",,
Red Bud,38.216500,-89.999200,"Midcontinent Independent Transmission System Operator, Inc..",Municipality,Municipality
North Ninth Street,41.909300,-89.049800,"PJM Interconnection, LLC",Municipality,Municipality
South Main Street,41.909200,-89.050400,"PJM Interconnection, LLC",Municipality,Municipality
Dallman,39.754803,-89.602389,"Midcontinent Independent Transmission System Operator, Inc..",Lake Springfield,Lake Springfield
Lakeside,39.757327,-89.600512,"Midcontinent Independent Transmission System Operator, Inc..",Lake Springfield,Lake Springfield
Reynolds,39.806868,-89.641653,"Midcontinent Independent Transmission System Operator, Inc..",,
Sullivan (IL),39.596667,-88.611944,"Midcontinent Independent Transmission System Operator, Inc..",,
Waterloo,38.334786,-90.158939,"Midcontinent Independent Transmission System Operator, Inc..",Municipality,Municipality
Winnetka,42.115589,-87.731025,"PJM Interconnection, LLC",Municipality,Municipality
Marion,37.619747,-88.953114,"Midcontinent Independent Transmission System Operator, Inc..",Lake Egypt,Lake Egypt
Clifty Creek,38.737800,-85.420600,Ohio Valley Electric Corporation,Ohio River,Ohio River
Elkhart,41.692800,-85.965000,"PJM Interconnection, LLC",St Joseph River,St Joseph River
Last Chance,42.603349,-111.705304,PacifiCorp - East,Last Chance Canal,Last Chance Canal
Tanners Creek,39.081400,-84.859400,"PJM Interconnection, LLC",Ohio River,Ohio River
Twin Branch,41.665000,-86.132200,"PJM Interconnection, LLC",St Joseph River,St Joseph River
Harding Street,39.711319,-86.196867,"Midcontinent Independent Transmission System Operator, Inc..",West fork of White River,West fork of White River
Eagle Valley (IN),39.485170,-86.418300,"Midcontinent Independent Transmission System Operator, Inc..",West fork of White River,West fork of White River
CC Perry K,39.763100,-86.166700,"Midcontinent Independent Transmission System Operator, Inc..","W. Fork, White River","W. Fork, White River"
AES Petersburg,38.528100,-87.252500,"Midcontinent Independent Transmission System Operator, Inc..",White River,White River
Bailly,41.645000,-87.122500,"Midcontinent Independent Transmission System Operator, Inc..",Lake Michigan,Lake Michigan
Dean H Mitchell,41.639200,-87.406900,"Midcontinent Independent Transmission System Operator, Inc..",Lake Michigan,Lake Michigan
Michigan City,41.720800,-86.908600,"Midcontinent Independent Transmission System Operator, Inc..",Lake Michigan,Lake Michigan
Norway (IN),40.780300,-86.760000,"Midcontinent Independent Transmission System Operator, Inc..",Tippecanoe River,Tippecanoe River
Oakdale,40.656400,-86.752800,"Midcontinent Independent Transmission System Operator, Inc..",Tippecanoe River,Tippecanoe River
Cayuga,39.924200,-87.424400,"Midcontinent Independent Transmission System Operator, Inc..",Wabash River,Wabash River
Connersville,39.656100,-85.175800,"Midcontinent Independent Transmission System Operator, Inc..",,
Edwardsport,38.806700,-87.247200,"Midcontinent Independent Transmission System Operator, Inc..",West fork White River,West fork White River
Markland,38.779500,-84.964000,"Midcontinent Independent Transmission System Operator, Inc..",Ohio River,Ohio River
Miami Wabash,40.788400,-85.817800,"Midcontinent Independent Transmission System Operator, Inc..",,
Noblesville,40.096900,-85.971400,"Midcontinent Independent Transmission System Operator, Inc..",White River,White River
R Gallagher,38.263600,-85.838100,"Midcontinent Independent Transmission System Operator, Inc..",Ohio River,Ohio River
Wabash River,39.530000,-87.424700,"Midcontinent Independent Transmission System Operator, Inc..",Wabash River,Wabash River
Broadway (IN),37.969116,-87.604879,"Midcontinent Independent Transmission System Operator, Inc..",,
F B Culley,37.911100,-87.327500,"Midcontinent Independent Transmission System Operator, Inc..",Ohio River,Ohio River
Northeast (IN),38.021100,-87.517200,"Midcontinent Independent Transmission System Operator, Inc..",RF,RF
Butler-Warner Generation Plant,35.098600,-78.829400,Duke Energy Progress East,City Water,City Water
Manti Lower,39.255911,-111.621491,PacifiCorp - East,Manti Creek,Manti Creek
Crawfordsville Power Plant,40.048889,-86.899200,"Midcontinent Independent Transmission System Operator, Inc..",Wells/Cooling Tower,Wells/Cooling Tower
Peru (IN),40.755100,-86.057500,"Midcontinent Independent Transmission System Operator, Inc..",Wabash River,Wabash River
Rensselaer City Light Plant,40.939528,-87.154472,"Midcontinent Independent Transmission System Operator, Inc..",Municipality,Municipality
Whitewater Valley,39.802800,-84.895300,"PJM Interconnection, LLC",East Fork Of Whitewater River,East Fork Of Whitewater River
Frank E Ratts,38.520100,-87.266200,"Midcontinent Independent Transmission System Operator, Inc..",White River,White River
Dubuque,42.503100,-90.658611,"Midcontinent Independent Transmission System Operator, Inc..",Mississippi River,Mississippi River
Lansing,43.335900,-91.167500,"Midcontinent Independent Transmission System Operator, Inc..",Mississippi River,Mississippi River
Milton L Kapp,41.808100,-90.233611,"Midcontinent Independent Transmission System Operator, Inc..",Mississippi River,Mississippi River
Ames Diesel Generating Station,42.013319,-93.575416,"Midcontinent Independent Transmission System Operator, Inc..",Municipality,Municipality
Sixth Street,41.984768,-91.668611,"Midcontinent Independent Transmission System Operator, Inc..",Cedar Lake,Cedar Lake
Duane Arnold Energy Center,42.101100,-91.778100,"Midcontinent Independent Transmission System Operator, Inc..",Cedar River,Cedar River
Iowa Hydro LLC,42.069987,-90.697657,"Midcontinent Independent Transmission System Operator, Inc..",Maquoketa River,Maquoketa River
Marshalltown,42.047400,-92.859444,"Midcontinent Independent Transmission System Operator, Inc..",,
Prairie Creek,41.944039,-91.639167,"Midcontinent Independent Transmission System Operator, Inc..",Cedar River,Cedar River
Sutherland,42.047333,-92.859444,"Midcontinent Independent Transmission System Operator, Inc..",Wells,Wells
Coralville GT,41.671877,-91.563999,"Midcontinent Independent Transmission System Operator, Inc..",,
Riverside,41.540000,-90.448100,"Midcontinent Independent Transmission System Operator, Inc..",Mississippi River,Mississippi River
Walter Scott Jr Energy Center,41.180000,-95.840800,"Midcontinent Independent Transmission System Operator, Inc..","Missouri River, Wells","Missouri River, Wells"
River Hills,41.590218,-93.619499,"Midcontinent Independent Transmission System Operator, Inc..",,
George Neal North,42.299794,-96.361707,"Midcontinent Independent Transmission System Operator, Inc..",Missouri River,Missouri River
Merl Parr,43.056300,-92.693200,"Midcontinent Independent Transmission System Operator, Inc..",,
Burlington (IA),40.741200,-91.116667,"Midcontinent Independent Transmission System Operator, Inc..",Mississippi River,Mississippi River
Centerville,40.747800,-92.873056,"Midcontinent Independent Transmission System Operator, Inc..",,
Keokuk,40.396500,-91.371900,"Midcontinent Independent Transmission System Operator, Inc..",Mississippi River,Mississippi River
Algona,43.073300,-94.239200,Southwest Power Pool,Wells,Wells
Alta Municipal Utilities,42.673600,-95.302600,Southwest Power Pool,Well,Well
Ames Electric Services Power Plant,42.025800,-93.608900,"Midcontinent Independent Transmission System Operator, Inc..",Wells - Ames Alluvial Aquifer,Wells - Ames Alluvial Aquifer
Anita,41.444224,-94.766474,"Midcontinent Independent Transmission System Operator, Inc..",,
Atlantic,41.409000,-95.000000,"Midcontinent Independent Transmission System Operator, Inc..",Municipality,Municipality
Bancroft,43.292628,-94.217075,"Midcontinent Independent Transmission System Operator, Inc..",,
Bellevue,42.250000,-90.416700,"Midcontinent Independent Transmission System Operator, Inc..",Jordon Stream Wells,Jordon Stream Wells
Bloomfield,40.703100,-92.425300,"Associated Electric Cooperative, Inc.",Bloomfield Municipality,Bloomfield Municipality
Brooklyn,41.727800,-92.447900,"Midcontinent Independent Transmission System Operator, Inc..",Municipality,Municipality
Cascade,42.298210,-91.011974,"Midcontinent Independent Transmission System Operator, Inc..",Municipality,Municipality
Gas Turbine (IA),42.512000,-92.476000,"Midcontinent Independent Transmission System Operator, Inc..",,
Streeter Station,42.526700,-92.439400,"Midcontinent Independent Transmission System Operator, Inc..",Wells,Wells
Coggon,42.280827,-91.532705,"Midcontinent Independent Transmission System Operator, Inc..",Cooling,Cooling
Corning,40.987100,-94.735200,"Midcontinent Independent Transmission System Operator, Inc..",Municipality,Municipality
Dayton (IA),42.260162,-94.069243,"Midcontinent Independent Transmission System Operator, Inc..",Municipality,Municipality
Estherville,43.402800,-94.843300,Southwest Power Pool,Municipality,Municipality
Forest City Light Plant,43.263235,-93.635383,"Midcontinent Independent Transmission System Operator, Inc..",,
Gowrie,42.282807,-94.288965,"Midcontinent Independent Transmission System Operator, Inc..",Municipality Wells,Municipality Wells
Graettinger,43.239700,-94.749800,"Midcontinent Independent Transmission System Operator, Inc..",Municipality,Municipality
Grand Junction,42.029600,-94.369900,"Midcontinent Independent Transmission System Operator, Inc..",Municipality,Municipality
Greenfield,41.303889,-94.460556,"Midcontinent Independent Transmission System Operator, Inc..",Municipality,Municipality
Grundy Center City Light Plant,42.363094,-92.772322,"Midcontinent Independent Transmission System Operator, Inc..",Well,Well
Harlan,41.644542,-95.315283,"Midcontinent Independent Transmission System Operator, Inc..",,
Indianola,41.359491,-93.563268,"Midcontinent Independent Transmission System Operator, Inc..",Municipality,Municipality
Lake Park,43.430100,-95.315300,"Midcontinent Independent Transmission System Operator, Inc..",,
Lake Mills,43.417200,-93.532200,"Midcontinent Independent Transmission System Operator, Inc..",Municipality,Municipality
Lamoni Municipal Utilities,40.622000,-93.932600,"Midcontinent Independent Transmission System Operator, Inc..",Municipality,Municipality
La Porte,42.315900,-92.192800,"Midcontinent Independent Transmission System Operator, Inc..",Wells,Wells
Laurens,42.848600,-94.850600,Southwest Power Pool,Municipality,Municipality
Lenox,40.880000,-94.558900,"Midcontinent Independent Transmission System Operator, Inc..",Municipality,Municipality
Manning,41.906700,-95.034700,Southwest Power Pool,Municipality,Municipality
Maquoketa 1,42.035556,-90.665000,"Midcontinent Independent Transmission System Operator, Inc..",Municipality,Municipality
McGregor,43.023733,-91.174927,"Midcontinent Independent Transmission System Operator, Inc..",Municipality,Municipality
Milford,43.326083,-95.148339,Southwest Power Pool,,
Montezuma,41.586026,-92.522800,"Midcontinent Independent Transmission System Operator, Inc..",Municipality,Municipality
Mt Pleasant,40.971826,-91.551221,"Associated Electric Cooperative, Inc.",Municipality,Municipality
Muscatine Plant #1,41.391700,-91.056900,"Midcontinent Independent Transmission System Operator, Inc..",Mississippi River,Mississippi River
New Hampton,43.068900,-92.320100,Southwest Power Pool,Municipality,Municipality
Ogden,42.037200,-94.046200,"Midcontinent Independent Transmission System Operator, Inc..",Municipality,Municipality
Osage (IA),43.279722,-92.810556,"Midcontinent Independent Transmission System Operator, Inc..",Municipality,Municipality
Ottumwa City of,41.016346,-92.414873,"Midcontinent Independent Transmission System Operator, Inc..",Des Moines River,Des Moines River
Pella,41.398100,-92.914400,"Midcontinent Independent Transmission System Operator, Inc..",Municipality,Municipality
Preston (IA),42.050700,-90.394200,"Midcontinent Independent Transmission System Operator, Inc..",Municipality,Municipality
Primghar,43.087130,-95.625960,"Midcontinent Independent Transmission System Operator, Inc..",,
Rockford,43.048900,-92.946800,"Midcontinent Independent Transmission System Operator, Inc..",City Water,City Water
Rock Rapids,43.429444,-96.169166,Southwest Power Pool,,
Sibley One,43.405000,-95.726100,"Midcontinent Independent Transmission System Operator, Inc..",Municipality,Municipality
Spencer Gas Turbine,43.144585,-95.144257,"Midcontinent Independent Transmission System Operator, Inc..",,
State Center,42.016670,-93.163330,"Midcontinent Independent Transmission System Operator, Inc..",Municipality,Municipality
Story City,42.186076,-93.600479,"Midcontinent Independent Transmission System Operator, Inc..",Municipality,Municipality
Strawberry Point,42.684444,-91.535555,"Midcontinent Independent Transmission System Operator, Inc..",Municipality,Municipality
Stuart (IA),41.503889,-94.317200,"Midcontinent Independent Transmission System Operator, Inc..",Municipality,Municipality
Sumner,42.846400,-92.097800,"Midcontinent Independent Transmission System Operator, Inc..",,
Traer Main,42.192600,-92.463600,"Midcontinent Independent Transmission System Operator, Inc..",Municipality,Municipality
Villisca Municipal Power Plant,40.931500,-94.985500,"Midcontinent Independent Transmission System Operator, Inc..",Municipality,Municipality
Vinton,42.169700,-92.022200,"Midcontinent Independent Transmission System Operator, Inc..",,
Webster City,42.471022,-93.814990,"Midcontinent Independent Transmission System Operator, Inc..",City of Webster City,City of Webster City
West Bend,42.961151,-94.445574,"Midcontinent Independent Transmission System Operator, Inc..",,
West Liberty,41.569128,-91.264050,"Midcontinent Independent Transmission System Operator, Inc..",Municipality Water System,Municipality Water System
Whittemore,43.064444,-94.421944,"Midcontinent Independent Transmission System Operator, Inc..",Municipality,Municipality
Wilton,41.587748,-91.019456,"Midcontinent Independent Transmission System Operator, Inc..",Municipality,Municipality
Winterset,41.337200,-94.012600,"Midcontinent Independent Transmission System Operator, Inc..",Municipality,Municipality
Summit Lake,41.113600,-94.347200,"Midcontinent Independent Transmission System Operator, Inc..",Green Valley Lake,Green Valley Lake
Earl F Wisdom,43.160600,-95.256900,Southwest Power Pool,Wells,Wells
Fair Station,41.456900,-90.823300,"Midcontinent Independent Transmission System Operator, Inc..",Mississippi River,Mississippi River
Bird City,39.758100,-101.531900,Southwest Power Pool,River,River
Colby,39.403001,-101.038202,Southwest Power Pool,River,River
Cimarron River,37.161100,-100.761900,Southwest Power Pool,Wells,Wells
Fort Dodge,37.732800,-99.949700,Southwest Power Pool,Wells,Wells
Great Bend - Sunflower,38.410000,-98.868900,Southwest Power Pool,Wells,Wells
Riverton,37.072616,-94.698704,Southwest Power Pool,Spring River,Spring River
Gordon Evans Energy Center,37.790300,-97.521667,Southwest Power Pool,Wells,Wells
La Cygne,38.348100,-94.645600,Southwest Power Pool,Lacygne Lake,Lacygne Lake
Murray Gill,37.596700,-97.413611,Southwest Power Pool,Wells,Wells
Neosho,37.305556,-95.110278,Southwest Power Pool,Neosho River,Neosho River
Hutchinson Energy Center,38.090600,-97.874722,Southwest Power Pool,Wells,Wells
Lawrence Energy Center,39.007200,-95.269167,Southwest Power Pool,Kansas River,Kansas River
Abilene Energy Center Combustion Turbine,38.883100,-97.201389,Southwest Power Pool,rural water district,rural water district
Tecumseh Energy Center,39.053900,-95.568889,Southwest Power Pool,Kansas River,Kansas River
Anthony,37.151700,-98.031100,Southwest Power Pool,Wells,Wells
Ashland,37.193787,-99.763073,Southwest Power Pool,,
Augusta Electric Plant No 1,37.678454,-96.971930,Southwest Power Pool,Municipality,Municipality
Baldwin City Plant No 1,38.774500,-95.186700,Southwest Power Pool,Municipality,Municipality
Belleville,39.832769,-97.632038,Southwest Power Pool,City Water,City Water
Beloit,39.457800,-98.112200,Southwest Power Pool,,
Burlingame,38.755100,-95.836800,Southwest Power Pool,City of Burlingame,City of Burlingame
Burlington (KS),38.193441,-95.749953,Southwest Power Pool,Municipality,Municipality
Chanute 1,37.683333,-95.454722,Southwest Power Pool,Municipality,Municipality
Chanute 2,37.695300,-95.458600,Southwest Power Pool,Municipality,Municipality
Clay Center,39.373966,-97.127211,Southwest Power Pool,Municipality,Municipality
Coffeyville,37.037344,-95.612689,Southwest Power Pool,Municipality,Municipality
Colby City of,39.394414,-101.058372,Southwest Power Pool,Wells,Wells
Ellinwood,38.354514,-98.583436,Southwest Power Pool,Municipality,Municipality
Ellis,38.947222,-99.528611,Southwest Power Pool,River,River
Erie,37.566810,-95.237499,Southwest Power Pool,Municipality,Municipality
Garnett Municipal,38.269700,-95.244700,Southwest Power Pool,Crystal Lake,Crystal Lake
Girard,37.507709,-94.839318,Southwest Power Pool,Municipality,Municipality
Goodland,39.341622,-101.705188,Southwest Power Pool,Municipality,Municipality
Herington,38.665800,-96.949200,Southwest Power Pool,Municipality,Municipality
Hill City,39.358200,-99.841700,Southwest Power Pool,Wells-Municipality,Wells-Municipality
Hoisington,38.513000,-98.774700,Southwest Power Pool,Municipality,Municipality
Holton,39.473500,-95.731550,Southwest Power Pool,Municipality,Municipality
Hugoton 1,37.175000,-101.345800,Southwest Power Pool,Municipality,Municipality
Iola,37.923076,-95.425572,Southwest Power Pool,Neosho River,Neosho River
Jetmore,38.080332,-99.893587,Southwest Power Pool,Municipal Water,Municipal Water
Kaw,39.086700,-94.651389,Southwest Power Pool,Kaw River,Kaw River
Quindaro,39.149200,-94.638100,Southwest Power Pool,Missouri River,Missouri River
Kingman Municipal Power and Light Plant,37.383110,-98.070364,Southwest Power Pool,Municipality,Municipality
La Crosse,38.531667,-99.308333,Southwest Power Pool,Cooling,Cooling
Gas Turbine (KS),38.179700,-99.112500,Southwest Power Pool,,
Larned,38.176167,-99.099984,Southwest Power Pool,Wells,Wells
Lincoln,39.037190,-98.152993,Southwest Power Pool,Ground Water Municipality,Ground Water Municipality
McPherson 2,38.363411,-97.683350,Southwest Power Pool,Municipality,Municipality
Meade,37.285176,-100.332438,Southwest Power Pool,Wells,Wells
Minneapolis City of,39.119400,-97.708600,Southwest Power Pool,Municipality,Municipality
Mulvane Power Plant,37.472448,-97.246749,Southwest Power Pool,Municipality,Municipality
Oberlin (KS),39.821700,-100.528900,Southwest Power Pool,Municipality,Municipality
Osage City,38.633183,-95.827658,Southwest Power Pool,Municipality,Municipality
Osawatomie City of,38.501719,-94.960069,Southwest Power Pool,Marais des Cygne,Marais des Cygne
Osborne,39.441979,-98.690296,Southwest Power Pool,Wells,Wells
Ottawa,38.615579,-95.279742,Southwest Power Pool,Municipality,Municipality
Pratt,37.635900,-98.743300,Southwest Power Pool,Municipality,Municipality
Russell Downtown,38.893333,-98.856944,Southwest Power Pool,Municipality,Municipality
Sabetha Power Plant,39.904922,-95.803367,Southwest Power Pool,Cooling-Municipality,Cooling-Municipality
St Francis,39.770868,-101.810082,Southwest Power Pool,Municipality,Municipality
St John,37.995300,-98.760200,Southwest Power Pool,Wells,Wells
Sharon Spring,38.890552,-101.751525,Southwest Power Pool,Municipality,Municipality
Stafford,37.956117,-98.599286,Southwest Power Pool,Water Wells,Water Wells
Sterling,38.214300,-98.207100,Southwest Power Pool,Municipality,Municipality
Stockton,39.436190,-99.277930,Southwest Power Pool,Municipality,Municipality
Wamego,39.199200,-96.308600,Southwest Power Pool,Municipal Wells,Municipal Wells
Washington,39.730600,-96.979500,Southwest Power Pool,Municipality,Municipality
Wellington 1,37.261372,-97.405700,Southwest Power Pool,Municipality,Municipality
West 14th Street,37.235400,-97.011000,Southwest Power Pool,Municipality,Municipality
Great Bend - Midwest Energy,38.370800,-98.783100,Southwest Power Pool,River,River
Garden City,37.970300,-100.895600,Southwest Power Pool,Wells,Wells
Big Sandy,38.170700,-82.617600,"PJM Interconnection, LLC",Big Sandy River,Big Sandy River
Dix Dam,37.786400,-84.702800,LG&E and KU Services Company as agent for Louisville Gas and Electric Company and Kentucky Utilities,Herrington Lake,Herrington Lake
E W Brown,37.788310,-84.712570,LG&E and KU Services Company as agent for Louisville Gas and Electric Company and Kentucky Utilities,Herrington Lake,Herrington Lake
Ghent,38.749700,-85.035000,LG&E and KU Services Company as agent for Louisville Gas and Electric Company and Kentucky Utilities,Ohio River,Ohio River
Green River,37.363600,-87.121400,LG&E and KU Services Company as agent for Louisville Gas and Electric Company and Kentucky Utilities,Green River,Green River
Haefling,38.079400,-84.519400,LG&E and KU Services Company as agent for Louisville Gas and Electric Company and Kentucky Utilities,,
Mother Ann Lee,37.829700,-84.724700,"PJM Interconnection, LLC",Kentucky River,Kentucky River
Pineville,36.796667,-83.761388,,Cumberland River,Cumberland River
Tyrone,38.047800,-84.848300,LG&E and KU Services Company as agent for Louisville Gas and Electric Company and Kentucky Utilities,Kentucky River,Kentucky River
Cane Run,38.183100,-85.889200,LG&E and KU Services Company as agent for Louisville Gas and Electric Company and Kentucky Utilities,Ohio River,Ohio River
Mill Creek (KY),38.052500,-85.910300,LG&E and KU Services Company as agent for Louisville Gas and Electric Company and Kentucky Utilities,Ohio River,Ohio River
Ohio Falls,38.283200,-85.779200,LG&E and KU Services Company as agent for Louisville Gas and Electric Company and Kentucky Utilities,Ohio River,Ohio River
Paddys Run,38.223592,-85.841704,LG&E and KU Services Company as agent for Louisville Gas and Electric Company and Kentucky Utilities,Wells,Wells
Waterside GT,38.258333,-85.754166,,Ohio River,Ohio River
Zorn,38.280278,-85.702331,LG&E and KU Services Company as agent for Louisville Gas and Electric Company and Kentucky Utilities,,
Barkley,37.021700,-88.221100,Tennessee Valley Authority,Cumberland River,Cumberland River
Elmer Smith,37.794200,-87.060800,LG&E and KU Services Company as agent for Louisville Gas and Electric Company and Kentucky Utilities,Ohio River,Ohio River
Paris (KY),38.204900,-84.238300,LG&E and KU Services Company as agent for Louisville Gas and Electric Company and Kentucky Utilities,Stoner Creek,Stoner Creek
Kentucky Dam,37.013100,-88.269200,Tennessee Valley Authority,Tennessee River,Tennessee River
Paradise,37.260800,-86.978300,Tennessee Valley Authority,Green River,Green River
Shawnee,37.151700,-88.775000,Tennessee Valley Authority,Ohio River,Ohio River
Wolf Creek,36.869100,-85.147000,Tennessee Valley Authority,Cumberland River,Cumberland River
Kenneth C Coleman,37.963100,-86.791100,"Midcontinent Independent Transmission System Operator, Inc..",Ohio River,Ohio River
HMP&L Station Two Henderson,37.646900,-87.502800,"Midcontinent Independent Transmission System Operator, Inc..",Green River,Green River
Robert A Reid,37.646100,-87.501900,"Midcontinent Independent Transmission System Operator, Inc..",Green River,Green River
Cooper,36.998100,-84.591900,"PJM Interconnection, LLC",Lake Cumberland,Lake Cumberland
Dale,37.880600,-84.261900,"PJM Interconnection, LLC",Kentucky River,Kentucky River
Louisiana 1,30.492200,-91.186400,"Midcontinent Independent Transmission System Operator, Inc..",Wells,Wells
Louisiana 2,30.492200,-91.186400,"Midcontinent Independent Transmission System Operator, Inc..",Wells,Wells
R S Nelson,30.284400,-93.291100,"Midcontinent Independent Transmission System Operator, Inc..",Sabine River Authority Canal,Sabine River Authority Canal
Willow Glen,30.274300,-91.116400,"Midcontinent Independent Transmission System Operator, Inc..",Mississippi River,Mississippi River
Coughlin Power Station,30.843900,-92.261111,"Midcontinent Independent Transmission System Operator, Inc..",Bayou Cocodrie,Bayou Cocodrie
Teche,29.822222,-91.542500,"Midcontinent Independent Transmission System Operator, Inc..",Charenton Canal,Charenton Canal
Buras,29.359145,-89.537264,"Midcontinent Independent Transmission System Operator, Inc..",Air Cooled Condensor,Air Cooled Condensor
Little Gypsy,30.005067,-90.461694,"Midcontinent Independent Transmission System Operator, Inc..",Mississippi River,Mississippi River
Nine Mile Point,29.947200,-90.145800,"Midcontinent Independent Transmission System Operator, Inc..",Mississippi River,Mississippi River
Sterlington,32.704700,-92.079200,"Midcontinent Independent Transmission System Operator, Inc..",Ouachita River,Ouachita River
A B Paterson,30.015833,-90.025556,"Midcontinent Independent Transmission System Operator, Inc..",Inner Harbor Navigation Canal,Inner Harbor Navigation Canal
Michoud,30.008100,-89.937200,"Midcontinent Independent Transmission System Operator, Inc..",The Inner Costal Water Way,The Inner Costal Water Way
Arsenal Hill,32.518100,-93.761100,Southwest Power Pool,Arsenal Hill Cooling Pond,Arsenal Hill Cooling Pond
Lieberman,32.704700,-93.959700,Southwest Power Pool,Caddo Lake,Caddo Lake
Franklin (LA),29.822222,-91.542500,"Midcontinent Independent Transmission System Operator, Inc..",,
Houma,29.580600,-90.722500,"Midcontinent Independent Transmission System Operator, Inc..",Municipality,Municipality
Louis Doc Bonin,30.238038,-92.046264,"Midcontinent Independent Transmission System Operator, Inc..",Well,Well
Rodemacher,30.236111,-92.008333,"Midcontinent Independent Transmission System Operator, Inc..",,
Monroe (LA),32.523300,-92.179400,"Midcontinent Independent Transmission System Operator, Inc..",Ouachita River,Ouachita River
Morgan City,29.691436,-91.188492,"Midcontinent Independent Transmission System Operator, Inc..",Municipality,Municipality
New Roads,30.726111,-91.368333,"Midcontinent Independent Transmission System Operator, Inc..",Municipality,Municipality
Plaquemine,30.273333,-91.256700,"Midcontinent Independent Transmission System Operator, Inc..",Municipality,Municipality
Rayne,30.234627,-92.272174,"Midcontinent Independent Transmission System Operator, Inc..",Municipality,Municipality
Big Cajun 1,30.673900,-91.355600,"Midcontinent Independent Transmission System Operator, Inc..",Wells,Wells
Bar Harbor,44.381700,-68.286900,ISO New England Inc.,On-Site Well,On-Site Well
Eastport,44.913600,-67.003300,ISO New England Inc.,City Water Supply,City Water Supply
Ellsworth Hydro Station,44.544200,-68.430600,ISO New England Inc.,Union River,Union River
Howland Hydro Station,45.238600,-68.657200,ISO New England Inc.,Piscataquis River,Piscataquis River
Medway,45.607800,-68.544400,ISO New England Inc.,W Branch Penobscot River,W Branch Penobscot River
Milford Hydro Station,44.942064,-68.645040,ISO New England Inc.,Penobscot River,Penobscot River
Stillwater Hydro Station,44.909400,-68.683300,ISO New England Inc.,Penobscot River,Penobscot River
Androscoggin 3,44.135332,-70.201499,ISO New England Inc.,Androscoggin River,Androscoggin River
Bar Mills,43.613600,-70.552500,ISO New England Inc.,Saco River,Saco River
Bonny Eagle,43.687688,-70.611553,ISO New England Inc.,Saco River,Saco River
Brunswick Hydro,43.920486,-69.967819,ISO New England Inc.,Androscoggin River,Androscoggin River
Cape Gas Turbine,43.643600,-70.254400,ISO New England Inc.,,
Cataract Hydro,43.495600,-70.447200,ISO New England Inc.,Saco River,Saco River
Continental Mills,44.092001,-70.221923,ISO New England Inc.,Androscoggin River,Androscoggin River
Deer Rips,44.134572,-70.203715,ISO New England Inc.,Androscoggin River,Androscoggin River
Fort Halifax,44.538611,-69.627777,,Sebasticook Stream,Sebasticook Stream
Gulf Island,44.152854,-70.209378,ISO New England Inc.,Androscoggin River,Androscoggin River
Harris Hydro,45.459200,-69.865800,ISO New England Inc.,Kennebec River,Kennebec River
Hiram,43.852500,-70.796900,ISO New England Inc.,Saco River,Saco River
Messalonskee 2 (Oakland),44.548544,-69.710404,ISO New England Inc.,Messalonskee Stream,Messalonskee Stream
Messalonskee 3,44.569872,-69.681841,ISO New England Inc.,Messalonskee Stream,Messalonskee Stream
Messalonskee 5,44.534397,-69.652232,ISO New England Inc.,Messalonskee Stream,Messalonskee Stream
North Gorham,43.802517,-70.449920,ISO New England Inc.,Presumpscot River,Presumpscot River
Shawmut,44.629517,-69.583527,ISO New England Inc.,Kennebec River,Kennebec River
Skelton,43.570800,-70.558300,ISO New England Inc.,Saco River,Saco River
William F Wyman,43.750800,-70.156700,ISO New England Inc.,Casco River,Casco River
West Buxton,43.666870,-70.602125,ISO New England Inc.,Saco River,Saco River
Weston Hydro,44.763875,-69.718280,ISO New England Inc.,Kennebec River,Kennebec River
Williams Hydro,44.958900,-69.870300,ISO New England Inc.,Kennebec River,Kennebec River
Wyman Hydro,45.070300,-69.906400,ISO New England Inc.,Kennebec River,Kennebec River
Caribou Generation Station,46.848000,-68.002600,New Brunswick System Operator,Aroostook River,Aroostook River
Flos Inn Diesel,46.710000,-67.955600,New Brunswick System Operator,Wells,Wells
Squa Pan Hydro Station,46.556477,-68.325538,New Brunswick System Operator,Squa Pan Lake,Squa Pan Lake
"CP Crane Power, LLC",39.323604,-76.365119,"PJM Interconnection, LLC",Seneca Creek,Seneca Creek
Gould Street,39.266300,-76.604700,"PJM Interconnection, LLC",Patapsco River,Patapsco River
Herbert A Wagner,39.178100,-76.526800,"PJM Interconnection, LLC",Patapsco River,Patapsco River
Notch Cliff,39.421700,-76.508700,"PJM Interconnection, LLC",,
Perryman,39.442836,-76.221761,"PJM Interconnection, LLC",,
Philadelphia,39.298600,-76.563600,"PJM Interconnection, LLC",,
Riverside (MD),39.236900,-76.513300,"PJM Interconnection, LLC",Patapsco River,Patapsco River
Westport,39.266040,-76.629537,"PJM Interconnection, LLC",,
Crisfield,37.994134,-75.837679,"PJM Interconnection, LLC",,
Vienna Operations,38.487800,-75.820800,"PJM Interconnection, LLC",Nanticoke River,Nanticoke River
Deep Creek,39.523000,-79.413000,"PJM Interconnection, LLC",Deep Creek Lake,Deep Creek Lake
FirstEnergy R Paul Smith Power Station,39.595000,-77.826940,"PJM Interconnection, LLC",Potomac River,Potomac River
Chalk Point LLC,38.544400,-76.686100,"PJM Interconnection, LLC",Patuxent River,Patuxent River
Dickerson,39.209700,-77.464400,"PJM Interconnection, LLC",Potomac River,Potomac River
Morgantown Generating Plant,38.359200,-76.976700,"PJM Interconnection, LLC",Potomac River,Potomac River
Conowingo,39.657200,-76.175200,"PJM Interconnection, LLC",Susquehanna River,Susquehanna River
Easton,38.778600,-76.076900,"PJM Interconnection, LLC",Municipality,Municipality
Exelon Edgar LLC,42.241544,-70.964889,,,
Exelon Framingham LLC,42.267200,-71.398300,ISO New England Inc.,,
Exelon L Street,42.339200,-71.035300,ISO New England Inc.,,
Mystic Generating Station,42.390800,-71.067500,ISO New England Inc.,Mystic River,Mystic River
New Boston Generating Station,42.339167,-71.035277,,Boston Harbor,Boston Harbor
Pilgrim Nuclear Power Station,41.943800,-70.578000,ISO New England Inc.,Atlantic Ocean,Atlantic Ocean
Exelon Medway LLC,42.140028,-71.446441,ISO New England Inc.,,
Kendall Square Station,42.363300,-71.079200,ISO New England Inc.,None,None
Oak Bluffs Diesel Generating Facility,41.425786,-70.608273,ISO New England Inc.,Town,Town
Canal,41.769400,-70.509700,ISO New England Inc.,Cape Cod Canal,Cape Cod Canal
Boatlock,42.208600,-72.601400,ISO New England Inc.,Connecticut River,Connecticut River
Chemical,42.191900,-72.609700,ISO New England Inc.,Connecticut River,Connecticut River
Hadley Falls,42.211900,-72.603600,ISO New England Inc.,Connecticut River,Connecticut River
Mount Tom,42.280600,-72.605500,ISO New England Inc.,Connecticut River,Connecticut River
Riverside Holyoke,42.200592,-72.594432,ISO New England Inc.,Connecticut River,Connecticut River
Nantucket,41.258300,-70.051700,ISO New England Inc.,,
Deerfield 5,42.691180,-72.956100,ISO New England Inc.,Deerfield River,Deerfield River
Salem Harbor,42.525600,-70.877200,ISO New England Inc.,"Salem Harbor, Atlantic Ocean","Salem Harbor, Atlantic Ocean"
Cabot,42.587500,-72.579300,ISO New England Inc.,Connecticut River,Connecticut River
Cobble Mountain,42.117112,-72.864663,ISO New England Inc.,Cobble Mountain Reservoir,Cobble Mountain Reservoir
Doreen,42.443300,-73.205800,ISO New England Inc.,,
Gardners Falls,42.591400,-72.730800,ISO New England Inc.,Deerfield River,Deerfield River
Putts Bridge,42.157896,-72.486430,ISO New England Inc.,Chicopee River,Chicopee River
Redbridge,42.176047,-72.409521,ISO New England Inc.,Chicopee River,Chicopee River
Essential Power Massachusetts LLC,42.095000,-72.595000,ISO New England Inc.,Connecticut River,Connecticut River
Woodland Road,42.336215,-73.235486,ISO New England Inc.,,
Potter Station 2,42.235000,-70.967200,ISO New England Inc.,Dry Cooling Tower,Dry Cooling Tower
High Street Station,42.698600,-70.869700,ISO New England Inc.,Rain,Rain
Waters River,42.542949,-70.928314,ISO New England Inc.,,
Cleary Flood,41.865300,-71.106100,ISO New England Inc.,Taunton River,Taunton River
Alcona,44.561961,-83.804505,"Midcontinent Independent Transmission System Operator, Inc..",Au Sable River,Au Sable River
Allegan Dam,42.563803,-85.953976,"Midcontinent Independent Transmission System Operator, Inc..",Kalamazoo River,Kalamazoo River
B C Cobb,43.258768,-86.242268,"Midcontinent Independent Transmission System Operator, Inc..",Muskegon Lake,Muskegon Lake
B E Morrow,42.280222,-85.492548,"Midcontinent Independent Transmission System Operator, Inc..",,
C W Tippy,44.259135,-85.939565,"Midcontinent Independent Transmission System Operator, Inc..",Manistee River,Manistee River
Cooke,44.472624,-83.571947,"Midcontinent Independent Transmission System Operator, Inc..",Au Sable River,Au Sable River
Croton,43.437322,-85.664462,"Midcontinent Independent Transmission System Operator, Inc..",Muskegon River,Muskegon River
Dan E Karn,43.644996,-83.840074,"Midcontinent Independent Transmission System Operator, Inc..",Saginaw River,Saginaw River
Five Channels,44.455518,-83.676274,"Midcontinent Independent Transmission System Operator, Inc..",Au Sable River,Au Sable River
Foote,44.435381,-83.440722,"Midcontinent Independent Transmission System Operator, Inc..",Au Sable River,Au Sable River
Gaylord - Consumers,45.030600,-84.703900,"Midcontinent Independent Transmission System Operator, Inc..",,
Hardy,43.486618,-85.629866,"Midcontinent Independent Transmission System Operator, Inc..",Muskegon River,Muskegon River
Hodenpyl,44.362860,-85.819968,"Midcontinent Independent Transmission System Operator, Inc..",Manistee River,Manistee River
J H Campbell,42.910296,-86.200740,"Midcontinent Independent Transmission System Operator, Inc..","Lake Michigan, Pigeon Lake","Lake Michigan, Pigeon Lake"
Loud,44.463100,-83.720800,"Midcontinent Independent Transmission System Operator, Inc..",Au Sable River,Au Sable River
Ludington,43.894200,-86.444700,"Midcontinent Independent Transmission System Operator, Inc..",Lake Michigan,Lake Michigan
Mio,44.661114,-84.131691,"Midcontinent Independent Transmission System Operator, Inc..",Au Sable River,Au Sable River
Palisades,42.323000,-86.314600,"Midcontinent Independent Transmission System Operator, Inc..",Lake Michigan,Lake Michigan
Rogers,43.613001,-85.479469,"Midcontinent Independent Transmission System Operator, Inc..",Muskegon River,Muskegon River
Straits,45.766859,-84.756601,"Midcontinent Independent Transmission System Operator, Inc..",,
Thetford,43.156746,-83.628589,"Midcontinent Independent Transmission System Operator, Inc..",,
J C Weadock,43.639927,-83.844712,"Midcontinent Independent Transmission System Operator, Inc..",Saginaw River,Saginaw River
Webber,42.952800,-84.902500,"Midcontinent Independent Transmission System Operator, Inc..",Grand River,Grand River
J R Whiting,41.792114,-83.449480,"Midcontinent Independent Transmission System Operator, Inc..",Lake Erie (North Maumee Bay),Lake Erie (North Maumee Bay)
Colfax,42.658653,-84.095181,"Midcontinent Independent Transmission System Operator, Inc..",,
Conners Creek,42.359200,-82.959700,"Midcontinent Independent Transmission System Operator, Inc..",Detroit River,Detroit River
Dayton (MI),42.175800,-83.533600,"Midcontinent Independent Transmission System Operator, Inc..",,
Delray,42.294700,-83.101900,"Midcontinent Independent Transmission System Operator, Inc..",Detroit River,Detroit River
Fermi,41.963100,-83.258100,"Midcontinent Independent Transmission System Operator, Inc..",Lake Erie,Lake Erie
Hancock,42.549700,-83.442500,"Midcontinent Independent Transmission System Operator, Inc..",,
Harbor Beach,43.851900,-82.643600,"Midcontinent Independent Transmission System Operator, Inc..",Lake Huron,Lake Huron
Marysville,42.925600,-82.460600,"Midcontinent Independent Transmission System Operator, Inc..",St Clair River,St Clair River
Monroe (MI),41.890600,-83.346400,"Midcontinent Independent Transmission System Operator, Inc..",Raisin River,Raisin River
Northeast (MI),42.450000,-83.038100,"Midcontinent Independent Transmission System Operator, Inc..",,
Oliver,43.826400,-83.238300,"Midcontinent Independent Transmission System Operator, Inc..",,
Placid 12,42.710600,-83.456900,"Midcontinent Independent Transmission System Operator, Inc..",,
Putnam (MI),42.710800,-83.456100,"Midcontinent Independent Transmission System Operator, Inc..",,
River Rouge,42.273900,-83.111900,"Midcontinent Independent Transmission System Operator, Inc..",Detroit River,Detroit River
Slocum,42.122500,-83.185000,"Midcontinent Independent Transmission System Operator, Inc..",,
St Clair,42.764200,-82.471900,"Midcontinent Independent Transmission System Operator, Inc..",St Clair River,St Clair River
Superior,42.263900,-83.642200,"Midcontinent Independent Transmission System Operator, Inc..",,
Trenton Channel,42.121700,-83.180800,"Midcontinent Independent Transmission System Operator, Inc..",Trenton Channel,Trenton Channel
Wilmot,43.456600,-83.188900,"Midcontinent Independent Transmission System Operator, Inc..",,
Manistique,45.955014,-86.256291,"Midcontinent Independent Transmission System Operator, Inc..",Closed System,Closed System
Edison Sault,46.497400,-84.332000,"Midcontinent Independent Transmission System Operator, Inc..",Lake Superior/ St. Marys River,Lake Superior/ St. Marys River
Berrien Springs,41.943900,-86.328900,"PJM Interconnection, LLC",St Joseph River,St Joseph River
Buchanan (MI),41.839566,-86.351050,"PJM Interconnection, LLC",St Joseph River,St Joseph River
Saxon Falls,46.539200,-90.374200,"Midcontinent Independent Transmission System Operator, Inc..",Montreal River,Montreal River
Superior Falls,46.564601,-90.416147,"Midcontinent Independent Transmission System Operator, Inc..",Montreal River,Montreal River
Constantine,41.843600,-85.669400,"PJM Interconnection, LLC",St Joseph River,St Joseph River
Mottville,41.805600,-85.750500,"PJM Interconnection, LLC",St Joseph River,St Joseph River
Presque Isle,46.578900,-87.395000,"Midcontinent Independent Transmission System Operator, Inc..",Lake Superior,Lake Superior
John H Warden,46.755300,-88.455800,"Midcontinent Independent Transmission System Operator, Inc..",Lake Superior,Lake Superior
Prickett,46.726100,-88.662500,"Midcontinent Independent Transmission System Operator, Inc..",Sturgeon River,Sturgeon River
Victoria Dam,46.696400,-89.208900,"Midcontinent Independent Transmission System Operator, Inc..",West Branch Ontonagon River,West Branch Ontonagon River
Brule,45.947200,-88.218900,"Midcontinent Independent Transmission System Operator, Inc..",Brule River,Brule River
Chalk Hill,45.513600,-87.801100,"Midcontinent Independent Transmission System Operator, Inc..",Menominee River,Menominee River
Hemlock Falls,46.131100,-88.225000,"Midcontinent Independent Transmission System Operator, Inc..",Michigamme River,Michigamme River
Kingsford,45.807956,-88.125121,"Midcontinent Independent Transmission System Operator, Inc..",Menominee River,Menominee River
Michigamme Falls,45.955300,-88.195800,"Midcontinent Independent Transmission System Operator, Inc..",Michigamme River,Michigamme River
Peavy Falls,45.990781,-88.210514,"Midcontinent Independent Transmission System Operator, Inc..",Michigamme River,Michigamme River
Twin Falls (MI),45.871900,-88.069400,"Midcontinent Independent Transmission System Operator, Inc..",Menominee River,Menominee River
Way Dam,46.159200,-88.235300,"Midcontinent Independent Transmission System Operator, Inc..",Michigamme River,Michigamme River
White Rapids,45.482084,-87.802178,"Midcontinent Independent Transmission System Operator, Inc..",Menominee River,Menominee River
Grand Rapids,45.354700,-87.649400,"Midcontinent Independent Transmission System Operator, Inc..",Menominee River,Menominee River
Clinton,42.068197,-83.976005,"Midcontinent Independent Transmission System Operator, Inc..",,
Crystal Falls,46.106278,-88.334531,"Midcontinent Independent Transmission System Operator, Inc..",Paint River,Paint River
J B Sims,43.070600,-86.235000,"Midcontinent Independent Transmission System Operator, Inc..",Grand River,Grand River
Grand Haven Diesel Plant,43.059800,-86.237900,"Midcontinent Independent Transmission System Operator, Inc..",Grand River,Grand River
Hart,43.704076,-86.366256,"Midcontinent Independent Transmission System Operator, Inc..",Wells,Wells
Hillsdale,41.906100,-84.631900,"Midcontinent Independent Transmission System Operator, Inc..",Baw Beese Lake,Baw Beese Lake
James De Young,42.795600,-86.113300,"Midcontinent Independent Transmission System Operator, Inc..",Lake Macatawa,Lake Macatawa
Eckert Station,42.718390,-84.558080,"Midcontinent Independent Transmission System Operator, Inc..",Grand River,Grand River
Erickson Station,42.692222,-84.657222,"Midcontinent Independent Transmission System Operator, Inc..",Grand River,Grand River
